$GPGGA,235944.00,3352.06667,S,15112.43333,E,8,11,0.8,36.5,M,21.5,M,,*4F
$GPGLL,3352.06667,S,15112.43333,E,235944.00,A*10
$GPVTG,90.00000,T,90.00000,M,0.000,N,0.000,K*4E
$GPZDA,235944.00,15,01,2015,-10,00*44
$GPGSV,3,1,11,4,12,115,50,9,4,17,50,15,8,220,50,28,65,201,50*44
$GPGSV,3,2,11,30,63,101,50,11,25,109,50,1,18,85,50,17,48,350,50*78
$GPGSV,3,3,11,7,33,72,50,13,39,235,50,26,42,238,50*49
$GPGSA,A,3,04,09,15,28,30,11,01,17,07,13,26,00,1.4,0.8,1.1*39
$GPGGA,235945.00,3352.06667,S,15112.43333,E,8,11,0.8,36.5,M,21.5,M,,*4E
$GPGLL,3352.06667,S,15112.43333,E,235945.00,A*11
$GPVTG,90.00000,T,90.00000,M,0.000,N,0.000,K*4E
$GPZDA,235945.00,15,01,2015,-10,00*45
$GPGSV,3,1,11,4,12,115,50,9,4,17,50,15,8,220,50,28,65,201,50*44
$GPGSV,3,2,11,30,63,101,50,11,25,109,50,1,18,85,50,17,48,350,50*78
$GPGSV,3,3,11,7,33,72,50,13,39,235,50,26,42,238,50*49
$GPGSA,A,3,04,09,15,28,30,11,01,17,07,13,26,00,1.4,0.8,1.1*39
$GPGGA,235946.00,3352.06667,S,15112.43333,E,8,11,0.8,36.5,M,21.5,M,,*4D
$GPGLL,3352.06667,S,15112.43333,E,235946.00,A*12
$GPVTG,90.00000,T,90.00000,M,0.000,N,0.000,K*4E
$GPZDA,235946.00,15,01,2015,-10,00*46
$GPGSV,3,1,11,4,12,115,50,9,4,17,50,15,8,220,50,28,65,201,50*44
$GPGSV,3,2,11,30,63,101,50,11,25,109,50,1,18,85,50,17,48,350,50*78
$GPGSV,3,3,11,7,33,72,50,13,39,235,50,26,42,238,50*49
$GPGSA,A,3,04,09,15,28,30,11,01,17,07,13,26,00,1.4,0.8,1.1*39
$GPGGA,235947.00,3352.06667,S,15112.43333,E,8,11,0.8,36.5,M,21.5,M,,*4C
$GPGLL,3352.06667,S,15112.43333,E,235947.00,A*13
$GPVTG,90.00000,T,90.00000,M,0.000,N,0.000,K*4E
$GPZDA,235947.00,15,01,2015,-10,00*47
$GPGSV,3,1,11,4,12,115,50,9,4,17,50,15,8,220,50,28,65,201,50*44
$GPGSV,3,2,11,30,63,101,50,11,25,109,50,1,18,85,50,17,48,350,50*78
$GPGSV,3,3,11,7,33,72,50,13,39,235,50,26,42,238,50*49
$GPGSA,A,3,04,09,15,28,30,11,01,17,07,13,26,00,1.4,0.8,1.1*39
$GPGGA,235948.00,3352.06667,S,15112.43333,E,8,11,0.8,36.5,M,21.5,M,,*43
$GPGLL,3352.06667,S,15112.43333,E,235948.00,A*1C
$GPVTG,90.00000,T,90.00000,M,0.000,N,0.000,K*4E
$GPZDA,235948.00,15,01,2015,-10,00*48
$GPGSV,3,1,11,4,12,115,50,9,4,17,50,15,8,220,50,28,65,201,50*44
$GPGSV,3,2,11,30,63,101,50,11,25,109,50,1,18,85,50,17,48,350,50*78
$GPGSV,3,3,11,7,33,71,50,13,39,235,50,26,42,238,50*4A
$GPGSA,A,3,04,09,15,28,30,11,01,17,07,13,26,00,1.4,0.8,1.1*39
$GPGGA,235949.00,3352.06667,S,15112.43333,E,8,11,0.8,36.5,M,21.5,M,,*42
$GPGLL,3352.06667,S,15112.43333,E,235949.00,A*1D
$GPVTG,90.00000,T,90.00000,M,0.000,N,0.000,K*4E
$GPZDA,235949.00,15,01,2015,-10,00*49
$GPGSV,3,1,11,4,12,115,50,9,4,17,50,15,8,220,50,28,65,201,50*44
$GPGSV,3,2,11,30,63,101,50,11,25,109,50,1,18,85,50,17,48,350,50*78
$GPGSV,3,3,11,7,33,71,50,13,39,235,50,26,42,238,50*4A
$GPGSA,A,3,04,09,15,28,30,11,01,17,07,13,26,00,1.4,0.8,1.1*39
$GPGGA,235950.00,3352.06667,S,15112.43333,E,8,11,0.8,36.5,M,21.5,M,,*4A
$GPGLL,3352.06667,S,15112.43333,E,235950.00,A*15
$GPVTG,90.00000,T,90.00000,M,0.000,N,0.000,K*4E
$GPZDA,235950.00,15,01,2015,-10,00*41
$GPGSV,3,1,11,4,12,115,50,9,4,17,50,15,8,220,50,28,65,201,50*44
$GPGSV,3,2,11,30,63,101,50,11,25,109,50,1,18,85,50,17,48,350,50*78
$GPGSV,3,3,11,7,33,71,50,13,39,235,50,26,42,238,50*4A
$GPGSA,A,3,04,09,15,28,30,11,01,17,07,13,26,00,1.4,0.8,1.1*39
$GPGGA,235951.00,3352.06667,S,15112.43333,E,8,11,0.8,36.5,M,21.5,M,,*4B
$GPGLL,3352.06667,S,15112.43333,E,235951.00,A*14
$GPVTG,90.00000,T,90.00000,M,0.000,N,0.000,K*4E
$GPZDA,235951.00,15,01,2015,-10,00*40
$GPGSV,3,1,11,4,12,115,50,9,4,17,50,15,8,220,50,28,65,201,50*44
$GPGSV,3,2,11,30,63,101,50,11,25,109,50,1,18,85,50,17,48,350,50*78
$GPGSV,3,3,11,7,33,71,50,13,39,235,50,26,42,238,50*4A
$GPGSA,A,3,04,09,15,28,30,11,01,17,07,13,26,00,1.4,0.8,1.1*39
$GPGGA,235952.00,3352.06667,S,15112.43333,E,8,11,0.8,36.5,M,21.5,M,,*48
$GPGLL,3352.06667,S,15112.43333,E,235952.00,A*17
$GPVTG,90.00000,T,90.00000,M,0.000,N,0.000,K*4E
$GPZDA,235952.00,15,01,2015,-10,00*43
$GPGSV,3,1,11,4,12,115,50,9,4,17,50,15,8,220,50,28,65,201,50*44
$GPGSV,3,2,11,30,63,101,50,11,25,109,50,1,18,85,50,17,48,350,50*78
$GPGSV,3,3,11,7,33,71,50,13,39,235,50,26,42,238,50*4A
$GPGSA,A,3,04,09,15,28,30,11,01,17,07,13,26,00,1.4,0.8,1.1*39
$GPGGA,235953.00,3352.06667,S,15112.43333,E,8,11,0.8,36.5,M,21.5,M,,*49
$GPGLL,3352.06667,S,15112.43333,E,235953.00,A*16
$GPVTG,90.00000,T,90.00000,M,0.000,N,0.000,K*4E
$GPZDA,235953.00,15,01,2015,-10,00*42
$GPGSV,3,1,11,4,12,115,50,9,4,17,50,15,8,220,50,28,65,201,50*44
$GPGSV,3,2,11,30,63,101,50,11,25,109,50,1,18,85,50,17,48,350,50*78
$GPGSV,3,3,11,7,33,71,50,13,39,235,50,26,42,238,50*4A
$GPGSA,A,3,04,09,15,28,30,11,01,17,07,13,26,00,1.4,0.8,1.1*39
$GPGGA,235954.00,3352.06667,S,15112.43333,E,8,11,0.8,36.5,M,21.5,M,,*4E
$GPGLL,3352.06667,S,15112.43333,E,235954.00,A*11
$GPVTG,90.00000,T,90.00000,M,0.000,N,0.000,K*4E
$GPZDA,235954.00,15,01,2015,-10,00*45
$GPGSV,3,1,11,4,12,115,50,9,4,17,50,15,8,220,50,28,65,201,50*44
$GPGSV,3,2,11,30,63,101,50,11,25,109,50,1,18,85,50,17,48,350,50*78
$GPGSV,3,3,11,7,33,71,50,13,39,235,50,26,42,238,50*4A
$GPGSA,A,3,04,09,15,28,30,11,01,17,07,13,26,00,1.4,0.8,1.1*39
$GPGGA,235955.00,3352.06667,S,15112.43333,E,8,11,1.2,36.5,M,21.5,M,,*44
$GPGLL,3352.06667,S,15112.43333,E,235955.00,A*10
$GPVTG,90.00000,T,90.00000,M,0.000,N,0.000,K*4E
$GPZDA,235955.00,15,01,2015,-10,00*44
$GPGSV,3,1,11,4,12,115,50,9,4,17,50,15,8,220,50,28,65,201,50*44
$GPGSV,3,2,11,30,63,101,50,11,25,109,50,1,18,85,50,17,48,350,50*78
$GPGSV,3,3,11,7,33,71,50,13,39,235,50,26,42,238,50*4A
$GPGSA,A,3,04,09,15,28,30,11,01,17,07,13,26,00,1.9,1.2,1.5*3B
$GPGGA,235956.00,3352.06667,S,15112.43333,E,8,10,1.2,36.5,M,21.5,M,,*46
$GPGLL,3352.06667,S,15112.43333,E,235956.00,A*13
$GPVTG,90.00000,T,90.00000,M,0.000,N,0.000,K*4E
$GPZDA,235956.00,15,01,2015,-10,00*47
$GPGSV,3,1,10,4,12,115,50,15,8,220,50,28,65,201,50,30,63,101,50*78
$GPGSV,3,2,10,11,25,109,50,1,18,85,50,17,48,350,50,7,33,71,50*7E
$GPGSV,3,3,10,13,39,235,50,26,42,238,50*7F
$GPGSA,A,3,04,00,15,28,30,11,01,17,07,13,26,00,1.9,1.2,1.5*32
$GPGGA,235957.00,3352.06667,S,15112.43333,E,8,10,1.2,36.5,M,21.5,M,,*47
$GPGLL,3352.06667,S,15112.43333,E,235957.00,A*12
$GPVTG,90.00000,T,90.00000,M,0.000,N,0.000,K*4E
$GPZDA,235957.00,15,01,2015,-10,00*46
$GPGSV,3,1,10,4,12,115,50,15,8,220,50,28,65,201,50,30,63,101,50*78
$GPGSV,3,2,10,11,25,109,50,1,18,85,50,17,48,350,50,7,33,71,50*7E
$GPGSV,3,3,10,13,39,235,50,26,42,238,50*7F
$GPGSA,A,3,04,00,15,28,30,11,01,17,07,13,26,00,1.9,1.2,1.5*32
$GPGGA,235958.00,3352.06667,S,15112.43333,E,8,10,1.2,36.5,M,21.5,M,,*48
$GPGLL,3352.06667,S,15112.43333,E,235958.00,A*1D
$GPVTG,90.00000,T,90.00000,M,0.000,N,0.000,K*4E
$GPZDA,235958.00,15,01,2015,-10,00*49
$GPGSV,3,1,10,4,12,115,50,15,8,220,50,28,65,201,50,30,63,101,50*78
$GPGSV,3,2,10,11,25,109,50,1,18,85,50,17,48,350,50,7,33,71,50*7E
$GPGSV,3,3,10,13,39,235,50,26,42,238,50*7F
$GPGSA,A,3,04,00,15,28,30,11,01,17,07,13,26,00,1.9,1.2,1.5*32
$GPGGA,235959.00,3352.06667,S,15112.43333,E,8,10,1.2,36.5,M,21.5,M,,*49
$GPGLL,3352.06667,S,15112.43333,E,235959.00,A*1C
$GPVTG,90.00000,T,90.00000,M,0.000,N,0.000,K*4E
$GPZDA,235959.00,15,01,2015,-10,00*48
$GPGSV,3,1,10,4,12,115,50,15,8,220,50,28,65,201,50,30,63,100,50*79
$GPGSV,3,2,10,11,25,109,50,1,18,85,50,17,48,350,50,7,33,71,50*7E
$GPGSV,3,3,10,13,39,235,50,26,42,238,50*7F
$GPGSA,A,3,04,00,15,28,30,11,01,17,07,13,26,00,1.9,1.2,1.5*32
$GPGGA,000000.00,3352.06667,S,15112.43333,E,8,10,1.2,36.5,M,21.5,M,,*48
$GPGLL,3352.06667,S,15112.43333,E,000000.00,A*1D
$GPVTG,90.00000,T,90.00000,M,0.000,N,0.000,K*4E
$GPZDA,000000.00,15,01,2015,-10,00*49
$GPGSV,3,1,10,4,12,115,50,15,8,220,50,28,65,201,50,30,63,100,50*79
$GPGSV,3,2,10,11,25,109,50,1,18,85,50,17,48,350,50,7,33,71,50*7E
$GPGSV,3,3,10,13,39,235,50,26,42,238,50*7F
$GPGSA,A,3,04,00,15,28,30,11,01,17,07,13,26,00,1.9,1.2,1.5*32
$GPGGA,000001.00,3352.06667,S,15112.43333,E,8,10,1.2,36.5,M,21.5,M,,*49
$GPGLL,3352.06667,S,15112.43333,E,000001.00,A*1C
$GPVTG,90.00000,T,90.00000,M,0.000,N,0.000,K*4E
$GPZDA,000001.00,15,01,2015,-10,00*48
$GPGSV,3,1,10,4,12,115,50,15,8,220,50,28,65,201,50,30,63,100,50*79
$GPGSV,3,2,10,11,25,109,50,1,18,85,50,17,48,350,50,7,33,71,50*7E
$GPGSV,3,3,10,13,39,235,50,26,42,238,50*7F
$GPGSA,A,3,04,00,15,28,30,11,01,17,07,13,26,00,1.9,1.2,1.5*32
$GPGGA,000002.00,3352.06667,S,15112.43333,E,8,10,1.2,36.5,M,21.5,M,,*4A
$GPGLL,3352.06667,S,15112.43333,E,000002.00,A*1F
$GPVTG,90.00000,T,90.00000,M,0.000,N,0.000,K*4E
$GPZDA,000002.00,15,01,2015,-10,00*4B
$GPGSV,3,1,10,4,12,115,50,15,8,220,50,28,65,201,50,30,63,100,50*79
$GPGSV,3,2,10,11,25,109,50,1,18,85,50,17,48,350,50,7,33,71,50*7E
$GPGSV,3,3,10,13,39,235,50,26,42,238,50*7F
$GPGSA,A,3,04,00,15,28,30,11,01,17,07,13,26,00,1.9,1.2,1.5*32
$GPGGA,000003.00,3352.06667,S,15112.43333,E,8,10,1.2,36.5,M,21.5,M,,*4B
$GPGLL,3352.06667,S,15112.43333,E,000003.00,A*1E
$GPVTG,90.00000,T,90.00000,M,0.000,N,0.000,K*4E
$GPZDA,000003.00,15,01,2015,-10,00*4A
$GPGSV,3,1,10,4,12,115,50,15,8,220,50,28,65,201,50,30,63,100,50*79
$GPGSV,3,2,10,11,25,109,50,1,18,86,50,17,48,350,50,7,33,71,50*7D
$GPGSV,3,3,10,13,39,235,50,26,42,238,50*7F
$GPGSA,A,3,04,00,15,28,30,11,01,17,07,13,26,00,1.9,1.2,1.5*32
$GPGGA,000004.00,3352.06667,S,15112.43333,E,8,10,1.2,36.5,M,21.5,M,,*4C
$GPGLL,3352.06667,S,15112.43333,E,000004.00,A*19
$GPVTG,90.00000,T,90.00000,M,0.000,N,0.000,K*4E
$GPZDA,000004.00,15,01,2015,-10,00*4D
$GPGSV,3,1,10,4,12,115,50,15,8,220,50,28,65,201,50,30,63,100,50*79
$GPGSV,3,2,10,11,25,109,50,1,18,86,50,17,48,350,50,7,33,71,50*7D
$GPGSV,3,3,10,13,39,235,50,26,42,238,50*7F
$GPGSA,A,3,04,00,15,28,30,11,01,17,07,13,26,00,1.9,1.2,1.5*32
$GPGGA,000005.00,3352.06667,S,15112.43333,E,8,10,1.2,36.5,M,21.5,M,,*4D
$GPGLL,3352.06667,S,15112.43333,E,000005.00,A*18
$GPVTG,90.00000,T,90.00000,M,0.000,N,0.000,K*4E
$GPZDA,000005.00,15,01,2015,-10,00*4C
$GPGSV,3,1,10,4,12,115,50,15,8,220,50,28,65,201,50,30,63,100,50*79
$GPGSV,3,2,10,11,25,109,50,1,18,86,50,17,48,350,50,7,33,71,50*7D
$GPGSV,3,3,10,13,39,235,50,26,42,238,50*7F
$GPGSA,A,3,04,00,15,28,30,11,01,17,07,13,26,00,1.9,1.2,1.5*32
$GPGGA,000006.00,3352.06667,S,15112.43333,E,8,10,1.2,36.5,M,21.5,M,,*4E
$GPGLL,3352.06667,S,15112.43333,E,000006.00,A*1B
$GPVTG,90.00000,T,90.00000,M,0.000,N,0.000,K*4E
$GPZDA,000006.00,15,01,2015,-10,00*4F
$GPGSV,3,1,10,4,12,115,50,15,8,220,50,28,65,201,50,30,63,100,50*79
$GPGSV,3,2,10,11,25,109,50,1,18,86,50,17,48,350,50,7,33,71,50*7D
$GPGSV,3,3,10,13,39,235,50,26,42,238,50*7F
$GPGSA,A,3,04,00,15,28,30,11,01,17,07,13,26,00,1.9,1.2,1.5*32
$GPGGA,000007.00,3352.06667,S,15112.43333,E,8,10,1.2,36.5,M,21.5,M,,*4F
$GPGLL,3352.06667,S,15112.43333,E,000007.00,A*1A
$GPVTG,90.00000,T,90.00000,M,0.000,N,0.000,K*4E
$GPZDA,000007.00,15,01,2015,-10,00*4E
$GPGSV,3,1,10,4,12,115,50,15,8,220,50,28,65,201,50,30,63,100,50*79
$GPGSV,3,2,10,11,25,109,50,1,18,86,50,17,48,350,50,7,33,71,50*7D
$GPGSV,3,3,10,13,39,235,50,26,42,238,50*7F
$GPGSA,A,3,04,00,15,28,30,11,01,17,07,13,26,00,1.9,1.2,1.5*32
$GPGGA,000008.00,3352.06667,S,15112.43333,E,8,10,1.2,36.5,M,21.5,M,,*40
$GPGLL,3352.06667,S,15112.43333,E,000008.00,A*15
$GPVTG,90.00000,T,90.00000,M,0.000,N,0.000,K*4E
$GPZDA,000008.00,15,01,2015,-10,00*41
$GPGSV,3,1,10,4,12,115,50,15,8,220,50,28,65,201,50,30,63,100,50*79
$GPGSV,3,2,10,11,25,109,50,1,18,86,50,17,48,350,50,7,33,71,50*7D
$GPGSV,3,3,10,13,39,235,50,26,42,238,50*7F
$GPGSA,A,3,04,00,15,28,30,11,01,17,07,13,26,00,1.9,1.2,1.5*32
$GPGGA,000009.00,3352.06667,S,15112.43333,E,8,10,1.2,36.5,M,21.5,M,,*41
$GPGLL,3352.06667,S,15112.43333,E,000009.00,A*14
$GPVTG,90.00000,T,90.00000,M,0.000,N,0.000,K*4E
$GPZDA,000009.00,15,01,2015,-10,00*40
$GPGSV,3,1,10,4,12,115,50,15,8,220,50,28,65,201,50,30,63,100,50*79
$GPGSV,3,2,10,11,25,109,50,1,18,86,50,17,48,350,50,7,33,71,50*7D
$GPGSV,3,3,10,13,39,235,50,26,42,238,50*7F
$GPGSA,A,3,04,00,15,28,30,11,01,17,07,13,26,00,1.9,1.2,1.5*32
$GPGGA,000010.00,3352.06667,S,15112.43333,E,8,10,1.2,36.5,M,21.5,M,,*49
$GPGLL,3352.06667,S,15112.43333,E,000010.00,A*1C
$GPVTG,90.00000,T,90.00000,M,0.000,N,0.000,K*4E
$GPZDA,000010.00,15,01,2015,-10,00*48
$GPGSV,3,1,10,4,12,115,50,15,8,220,50,28,65,201,50,30,63,100,50*79
$GPGSV,3,2,10,11,25,109,50,1,18,86,50,17,48,350,50,7,33,71,50*7D
$GPGSV,3,3,10,13,39,235,50,26,42,238,50*7F
$GPGSA,A,3,04,00,15,28,30,11,01,17,07,13,26,00,1.9,1.2,1.5*32
$GPGGA,000011.00,3352.06667,S,15112.43333,E,8,10,1.2,36.5,M,21.5,M,,*48
$GPGLL,3352.06667,S,15112.43333,E,000011.00,A*1D
$GPVTG,90.00000,T,90.00000,M,0.000,N,0.000,K*4E
$GPZDA,000011.00,15,01,2015,-10,00*49
$GPGSV,3,1,10,4,12,115,50,15,8,220,50,28,65,201,50,30,63,100,50*79
$GPGSV,3,2,10,11,25,109,50,1,18,86,50,17,48,350,50,7,33,71,50*7D
$GPGSV,3,3,10,13,39,235,50,26,42,238,50*7F
$GPGSA,A,3,04,00,15,28,30,11,01,17,07,13,26,00,1.9,1.2,1.5*32
$GPGGA,000012.00,3352.06667,S,15112.43333,E,8,10,1.2,36.5,M,21.5,M,,*4B
$GPGLL,3352.06667,S,15112.43333,E,000012.00,A*1E
$GPVTG,90.00000,T,90.00000,M,0.000,N,0.000,K*4E
$GPZDA,000012.00,15,01,2015,-10,00*4A
$GPGSV,3,1,10,4,12,115,50,15,8,220,50,28,65,201,50,30,63,100,50*79
$GPGSV,3,2,10,11,25,109,50,1,18,86,50,17,48,350,50,7,33,71,50*7D
$GPGSV,3,3,10,13,39,235,50,26,42,238,50*7F
$GPGSA,A,3,04,00,15,28,30,11,01,17,07,13,26,00,1.9,1.2,1.5*32
$GPGGA,000013.00,3352.06667,S,15112.43333,E,8,10,1.2,36.5,M,21.5,M,,*4A
$GPGLL,3352.06667,S,15112.43333,E,000013.00,A*1F
$GPVTG,90.00000,T,90.00000,M,0.000,N,0.000,K*4E
$GPZDA,000013.00,15,01,2015,-10,00*4B
$GPGSV,3,1,10,4,12,115,50,15,8,220,50,28,65,201,50,30,63,100,50*79
$GPGSV,3,2,10,11,25,109,50,1,18,86,50,17,48,350,50,7,33,71,50*7D
$GPGSV,3,3,10,13,39,235,50,26,42,238,50*7F
$GPGSA,A,3,04,00,15,28,30,11,01,17,07,13,26,00,1.9,1.2,1.5*32
$GPGGA,000014.00,3352.06667,S,15112.43333,E,8,10,1.2,36.5,M,21.5,M,,*4D
$GPGLL,3352.06667,S,15112.43333,E,000014.00,A*18
$GPVTG,90.00000,T,90.00000,M,0.000,N,0.000,K*4E
$GPZDA,000014.00,15,01,2015,-10,00*4C
$GPGSV,3,1,10,4,12,115,50,15,8,220,50,28,65,201,50,30,63,100,50*79
$GPGSV,3,2,10,11,25,109,50,1,18,86,50,17,48,350,50,7,33,71,50*7D
$GPGSV,3,3,10,13,39,235,50,26,42,238,50*7F
$GPGSA,A,3,04,00,15,28,30,11,01,17,07,13,26,00,1.9,1.2,1.5*32
$GPGGA,000015.00,3352.06667,S,15112.43333,E,8,10,1.2,36.5,M,21.5,M,,*4C
$GPGLL,3352.06667,S,15112.43333,E,000015.00,A*19
$GPVTG,90.00000,T,90.00000,M,0.000,N,0.000,K*4E
$GPZDA,000015.00,15,01,2015,-10,00*4D
$GPGSV,3,1,10,4,12,115,50,15,8,220,50,28,65,201,50,30,63,100,50*79
$GPGSV,3,2,10,11,25,109,50,1,18,86,50,17,48,350,50,7,33,71,50*7D
$GPGSV,3,3,10,13,39,235,50,26,42,238,50*7F
$GPGSA,A,3,04,00,15,28,30,11,01,17,07,13,26,00,1.9,1.2,1.5*32
$GPGGA,000016.00,3352.06667,S,15112.43333,E,8,10,1.2,36.5,M,21.5,M,,*4F
$GPGLL,3352.06667,S,15112.43333,E,000016.00,A*1A
$GPVTG,90.00000,T,90.00000,M,0.000,N,0.000,K*4E
$GPZDA,000016.00,15,01,2015,-10,00*4E
$GPGSV,3,1,10,4,12,115,50,15,8,220,50,28,65,201,50,30,63,100,50*79
$GPGSV,3,2,10,11,25,109,50,1,18,86,50,17,48,350,50,7,33,71,50*7D
$GPGSV,3,3,10,13,39,235,50,26,42,238,50*7F
$GPGSA,A,3,04,00,15,28,30,11,01,17,07,13,26,00,1.9,1.2,1.5*32
$GPGGA,000017.00,3352.06667,S,15112.43333,E,8,10,1.2,36.5,M,21.5,M,,*4E
$GPGLL,3352.06667,S,15112.43333,E,000017.00,A*1B
$GPVTG,90.00000,T,90.00000,M,0.000,N,0.000,K*4E
$GPZDA,000017.00,15,01,2015,-10,00*4F
$GPGSV,3,1,10,4,12,115,50,15,8,220,50,28,65,201,50,30,63,100,50*79
$GPGSV,3,2,10,11,25,109,50,1,18,86,50,17,48,350,50,7,33,71,50*7D
$GPGSV,3,3,10,13,39,235,50,26,42,238,50*7F
$GPGSA,A,3,04,00,15,28,30,11,01,17,07,13,26,00,1.9,1.2,1.5*32
$GPGGA,000018.00,3352.06667,S,15112.43333,E,8,10,1.2,36.5,M,21.5,M,,*41
$GPGLL,3352.06667,S,15112.43333,E,000018.00,A*14
$GPVTG,90.00000,T,90.00000,M,0.000,N,0.000,K*4E
$GPZDA,000018.00,15,01,2015,-10,00*40
$GPGSV,3,1,10,4,12,115,50,15,8,220,50,28,65,201,50,30,63,100,50*79
$GPGSV,3,2,10,11,25,109,50,1,18,86,50,17,48,350,50,7,33,71,50*7D
$GPGSV,3,3,10,13,39,235,50,26,42,238,50*7F
$GPGSA,A,3,04,00,15,28,30,11,01,17,07,13,26,00,1.9,1.2,1.5*32
$GPGGA,000019.00,3352.06667,S,15112.43333,E,8,10,1.2,36.5,M,21.5,M,,*40
$GPGLL,3352.06667,S,15112.43333,E,000019.00,A*15
$GPVTG,90.00000,T,90.00000,M,0.000,N,0.000,K*4E
$GPZDA,000019.00,15,01,2015,-10,00*41
$GPGSV,3,1,10,4,12,115,50,15,8,220,50,28,65,201,50,30,63,100,50*79
$GPGSV,3,2,10,11,25,109,50,1,18,86,50,17,48,350,50,7,33,71,50*7D
$GPGSV,3,3,10,13,39,235,50,26,42,238,50*7F
$GPGSA,A,3,04,00,15,28,30,11,01,17,07,13,26,00,1.9,1.2,1.5*32
$GPGGA,000020.00,3352.06667,S,15112.43333,E,8,10,1.2,36.5,M,21.5,M,,*4A
$GPGLL,3352.06667,S,15112.43333,E,000020.00,A*1F
$GPVTG,90.00000,T,90.00000,M,0.000,N,0.000,K*4E
$GPZDA,000020.00,15,01,2015,-10,00*4B
$GPGSV,3,1,10,4,12,115,50,15,8,220,50,28,65,201,50,30,63,100,50*79
$GPGSV,3,2,10,11,25,109,50,1,18,86,50,17,48,350,50,7,33,71,50*7D
$GPGSV,3,3,10,13,39,235,50,26,42,238,50*7F
$GPGSA,A,3,04,00,15,28,30,11,01,17,07,13,26,00,1.9,1.2,1.5*32
$GPGGA,000021.00,3352.06667,S,15112.43333,E,8,10,1.2,36.5,M,21.5,M,,*4B
$GPGLL,3352.06667,S,15112.43333,E,000021.00,A*1E
$GPVTG,90.00000,T,90.00000,M,0.000,N,0.000,K*4E
$GPZDA,000021.00,15,01,2015,-10,00*4A
$GPGSV,3,1,10,4,12,115,50,15,8,220,50,28,65,201,50,30,63,100,50*79
$GPGSV,3,2,10,11,25,109,50,1,18,86,50,17,48,350,50,7,33,71,50*7D
$GPGSV,3,3,10,13,39,235,50,26,42,238,50*7F
$GPGSA,A,3,04,00,15,28,30,11,01,17,07,13,26,00,1.9,1.2,1.5*32
$GPGGA,000022.00,3352.06667,S,15112.43333,E,8,10,1.2,36.5,M,21.5,M,,*48
$GPGLL,3352.06667,S,15112.43333,E,000022.00,A*1D
$GPVTG,90.00000,T,90.00000,M,0.000,N,0.000,K*4E
$GPZDA,000022.00,15,01,2015,-10,00*49
$GPGSV,3,1,10,4,12,115,50,15,8,220,50,28,65,201,50,30,63,100,50*79
$GPGSV,3,2,10,11,25,109,50,1,18,86,50,17,48,350,50,7,33,71,50*7D
$GPGSV,3,3,10,13,39,235,50,26,42,238,50*7F
$GPGSA,A,3,04,00,15,28,30,11,01,17,07,13,26,00,1.9,1.2,1.5*32
$GPGGA,000023.00,3352.06667,S,15112.43333,E,8,10,1.2,36.5,M,21.5,M,,*49
$GPGLL,3352.06667,S,15112.43333,E,000023.00,A*1C
$GPVTG,90.00000,T,90.00000,M,0.000,N,0.000,K*4E
$GPZDA,000023.00,15,01,2015,-10,00*48
$GPGSV,3,1,10,4,12,115,50,15,8,220,50,28,65,201,50,30,63,100,50*79
$GPGSV,3,2,10,11,25,109,50,1,18,86,50,17,48,350,50,7,33,71,50*7D
$GPGSV,3,3,10,13,39,235,50,26,42,238,50*7F
$GPGSA,A,3,04,00,15,28,30,11,01,17,07,13,26,00,1.9,1.2,1.5*32
$GPGGA,000024.00,3352.06667,S,15112.43333,E,8,10,1.2,36.5,M,21.5,M,,*4E
$GPGLL,3352.06667,S,15112.43333,E,000024.00,A*1B
$GPVTG,90.00000,T,90.00000,M,0.000,N,0.000,K*4E
$GPZDA,000024.00,15,01,2015,-10,00*4F
$GPGSV,3,1,10,4,12,115,50,15,8,220,50,28,65,201,50,30,63,100,50*79
$GPGSV,3,2,10,11,25,109,50,1,18,86,50,17,48,350,50,7,33,71,50*7D
$GPGSV,3,3,10,13,39,235,50,26,42,238,50*7F
$GPGSA,A,3,04,00,15,28,30,11,01,17,07,13,26,00,1.9,1.2,1.5*32
$GPGGA,000025.00,3352.06667,S,15112.43333,E,8,10,1.2,36.5,M,21.5,M,,*4F
$GPGLL,3352.06667,S,15112.43333,E,000025.00,A*1A
$GPVTG,90.00000,T,90.00000,M,0.000,N,0.000,K*4E
$GPZDA,000025.00,15,01,2015,-10,00*4E
$GPGSV,3,1,10,4,12,115,50,15,8,220,50,28,65,201,50,30,63,100,50*79
$GPGSV,3,2,10,11,25,109,50,1,18,86,50,17,48,350,50,7,33,71,50*7D
$GPGSV,3,3,10,13,39,235,50,26,42,238,50*7F
$GPGSA,A,3,04,00,15,28,30,11,01,17,07,13,26,00,1.9,1.2,1.5*32
$GPGGA,000026.00,3352.06667,S,15112.43333,E,8,10,1.2,36.5,M,21.5,M,,*4C
$GPGLL,3352.06667,S,15112.43333,E,000026.00,A*19
$GPVTG,90.00000,T,90.00000,M,0.000,N,0.000,K*4E
$GPZDA,000026.00,15,01,2015,-10,00*4D
$GPGSV,3,1,10,4,12,115,50,15,8,220,50,28,65,201,50,30,63,100,50*79
$GPGSV,3,2,10,11,25,109,50,1,18,86,50,17,48,350,50,7,33,71,50*7D
$GPGSV,3,3,10,13,39,235,50,26,42,238,50*7F
$GPGSA,A,3,04,00,15,28,30,11,01,17,07,13,26,00,1.9,1.2,1.5*32
$GPGGA,000027.00,3352.06667,S,15112.43333,E,8,10,1.2,36.5,M,21.5,M,,*4D
$GPGLL,3352.06667,S,15112.43333,E,000027.00,A*18
$GPVTG,90.00000,T,90.00000,M,0.000,N,0.000,K*4E
$GPZDA,000027.00,15,01,2015,-10,00*4C
$GPGSV,3,1,10,4,12,115,50,15,8,220,50,28,65,201,50,30,63,100,50*79
$GPGSV,3,2,10,11,25,109,50,1,18,86,50,17,48,350,50,7,33,71,50*7D
$GPGSV,3,3,10,13,39,235,50,26,42,238,50*7F
$GPGSA,A,3,04,00,15,28,30,11,01,17,07,13,26,00,1.9,1.2,1.5*32
$GPGGA,000028.00,3352.06667,S,15112.43333,E,8,10,1.2,36.5,M,21.5,M,,*42
$GPGLL,3352.06667,S,15112.43333,E,000028.00,A*17
$GPVTG,90.00000,T,90.00000,M,0.000,N,0.000,K*4E
$GPZDA,000028.00,15,01,2015,-10,00*43
$GPGSV,3,1,10,4,12,115,50,15,8,220,50,28,65,201,50,30,63,100,50*79
$GPGSV,3,2,10,11,25,109,50,1,18,86,50,17,48,350,50,7,33,71,50*7D
$GPGSV,3,3,10,13,39,235,50,26,42,238,50*7F
$GPGSA,A,3,04,00,15,28,30,11,01,17,07,13,26,00,1.9,1.2,1.5*32
$GPGGA,000029.00,3352.06667,S,15112.43333,E,8,10,1.2,36.5,M,21.5,M,,*43
$GPGLL,3352.06667,S,15112.43333,E,000029.00,A*16
$GPVTG,90.00000,T,90.00000,M,0.000,N,0.000,K*4E
$GPZDA,000029.00,15,01,2015,-10,00*42
$GPGSV,3,1,10,4,12,115,50,15,8,220,50,28,65,201,50,30,63,100,50*79
$GPGSV,3,2,10,11,25,109,50,1,18,86,50,17,48,350,50,7,33,71,50*7D
$GPGSV,3,3,10,13,39,235,50,26,42,238,50*7F
$GPGSA,A,3,04,00,15,28,30,11,01,17,07,13,26,00,1.9,1.2,1.5*32
$GPGGA,000030.00,3352.06667,S,15112.43333,E,8,10,1.2,36.5,M,21.5,M,,*4B
$GPGLL,3352.06667,S,15112.43333,E,000030.00,A*1E
$GPVTG,90.00000,T,90.00000,M,0.000,N,0.000,K*4E
$GPZDA,000030.00,15,01,2015,-10,00*4A
$GPGSV,3,1,10,4,12,115,50,15,8,220,50,28,65,200,50,30,63,100,50*78
$GPGSV,3,2,10,11,25,109,50,1,18,86,50,17,48,350,50,7,33,71,50*7D
$GPGSV,3,3,10,13,39,235,50,26,42,238,50*7F
$GPGSA,A,3,04,00,15,28,30,11,01,17,07,13,26,00,1.9,1.2,1.5*32
$GPGGA,000031.00,3352.06667,S,15112.43333,E,8,10,1.2,36.5,M,21.5,M,,*4A
$GPGLL,3352.06667,S,15112.43333,E,000031.00,A*1F
$GPVTG,90.00000,T,90.00000,M,0.000,N,0.000,K*4E
$GPZDA,000031.00,15,01,2015,-10,00*4B
$GPGSV,3,1,10,4,12,115,50,15,8,220,50,28,65,200,50,30,63,100,50*78
$GPGSV,3,2,10,11,25,109,50,1,18,86,50,17,48,350,50,7,33,71,50*7D
$GPGSV,3,3,10,13,39,235,50,26,42,238,50*7F
$GPGSA,A,3,04,00,15,28,30,11,01,17,07,13,26,00,1.9,1.2,1.5*32
$GPGGA,000032.00,3352.06667,S,15112.43333,E,8,10,1.2,36.5,M,21.5,M,,*49
$GPGLL,3352.06667,S,15112.43333,E,000032.00,A*1C
$GPVTG,90.00000,T,90.00000,M,0.000,N,0.000,K*4E
$GPZDA,000032.00,15,01,2015,-10,00*48
$GPGSV,3,1,10,4,12,115,50,15,8,220,50,28,65,200,50,30,63,100,50*78
$GPGSV,3,2,10,11,25,109,50,1,18,86,50,17,48,350,50,7,33,71,50*7D
$GPGSV,3,3,10,13,39,235,50,26,42,238,50*7F
$GPGSA,A,3,04,00,15,28,30,11,01,17,07,13,26,00,1.9,1.2,1.5*32
$GPGGA,000033.00,3352.06667,S,15112.43333,E,8,10,1.2,36.5,M,21.5,M,,*48
$GPGLL,3352.06667,S,15112.43333,E,000033.00,A*1D
$GPVTG,90.00000,T,90.00000,M,0.000,N,0.000,K*4E
$GPZDA,000033.00,15,01,2015,-10,00*49
$GPGSV,3,1,10,4,12,115,50,15,8,220,50,28,65,200,50,30,63,100,50*78
$GPGSV,3,2,10,11,25,109,50,1,18,86,50,17,48,350,50,7,33,71,50*7D
$GPGSV,3,3,10,13,39,235,50,26,42,238,50*7F
$GPGSA,A,3,04,00,15,28,30,11,01,17,07,13,26,00,1.9,1.2,1.5*32
$GPGGA,000034.00,3352.06667,S,15112.43333,E,8,10,1.2,36.5,M,21.5,M,,*4F
$GPGLL,3352.06667,S,15112.43333,E,000034.00,A*1A
$GPVTG,90.00000,T,90.00000,M,0.000,N,0.000,K*4E
$GPZDA,000034.00,15,01,2015,-10,00*4E
$GPGSV,3,1,10,4,12,115,50,15,8,220,50,28,65,200,50,30,63,100,50*78
$GPGSV,3,2,10,11,25,109,50,1,18,86,50,17,48,350,50,7,33,71,50*7D
$GPGSV,3,3,10,13,39,235,50,26,42,238,50*7F
$GPGSA,A,3,04,00,15,28,30,11,01,17,07,13,26,00,1.9,1.2,1.5*32
$GPGGA,000035.00,3352.06667,S,15112.43333,E,8,10,1.2,36.5,M,21.5,M,,*4E
$GPGLL,3352.06667,S,15112.43333,E,000035.00,A*1B
$GPVTG,90.00000,T,90.00000,M,0.000,N,0.000,K*4E
$GPZDA,000035.00,15,01,2015,-10,00*4F
$GPGSV,3,1,10,4,12,115,50,15,8,220,50,28,65,200,50,30,63,100,50*78
$GPGSV,3,2,10,11,25,109,50,1,18,86,50,17,48,350,50,7,33,71,50*7D
$GPGSV,3,3,10,13,39,235,50,26,42,238,50*7F
$GPGSA,A,3,04,00,15,28,30,11,01,17,07,13,26,00,1.9,1.2,1.5*32
$GPGGA,000036.00,3352.06667,S,15112.43333,E,8,10,1.2,36.5,M,21.5,M,,*4D
$GPGLL,3352.06667,S,15112.43333,E,000036.00,A*18
$GPVTG,90.00000,T,90.00000,M,0.000,N,0.000,K*4E
$GPZDA,000036.00,15,01,2015,-10,00*4C
$GPGSV,3,1,10,4,12,115,50,15,8,220,50,28,65,200,50,30,63,100,50*78
$GPGSV,3,2,10,11,25,109,50,1,18,86,50,17,48,350,50,7,33,71,50*7D
$GPGSV,3,3,10,13,39,235,50,26,42,238,50*7F
$GPGSA,A,3,04,00,15,28,30,11,01,17,07,13,26,00,1.9,1.2,1.5*32
$GPGGA,000037.00,3352.06667,S,15112.43333,E,8,10,1.2,36.5,M,21.5,M,,*4C
$GPGLL,3352.06667,S,15112.43333,E,000037.00,A*19
$GPVTG,90.00000,T,90.00000,M,0.000,N,0.000,K*4E
$GPZDA,000037.00,15,01,2015,-10,00*4D
$GPGSV,3,1,10,4,12,115,50,15,8,220,50,28,64,200,50,30,63,100,50*79
$GPGSV,3,2,10,11,25,109,50,1,18,86,50,17,48,350,50,7,33,71,50*7D
$GPGSV,3,3,10,13,39,235,50,26,42,239,50*7E
$GPGSA,A,3,04,00,15,28,30,11,01,17,07,13,26,00,1.9,1.2,1.5*32
$GPGGA,000038.00,3352.06667,S,15112.43333,E,8,10,1.2,36.5,M,21.5,M,,*43
$GPGLL,3352.06667,S,15112.43333,E,000038.00,A*16
$GPVTG,90.00000,T,90.00000,M,0.000,N,0.000,K*4E
$GPZDA,000038.00,15,01,2015,-10,00*42
$GPGSV,3,1,10,4,12,115,50,15,8,220,50,28,64,200,50,30,63,100,50*79
$GPGSV,3,2,10,11,25,109,50,1,18,86,50,17,48,350,50,7,33,71,50*7D
$GPGSV,3,3,10,13,39,235,50,26,42,239,50*7E
$GPGSA,A,3,04,00,15,28,30,11,01,17,07,13,26,00,1.9,1.2,1.5*32
$GPGGA,000039.00,3352.06667,S,15112.43333,E,8,10,1.2,36.5,M,21.5,M,,*42
$GPGLL,3352.06667,S,15112.43333,E,000039.00,A*17
$GPVTG,90.00000,T,90.00000,M,0.000,N,0.000,K*4E
$GPZDA,000039.00,15,01,2015,-10,00*43
$GPGSV,3,1,10,4,12,115,50,15,8,220,50,28,64,200,50,30,63,100,50*79
$GPGSV,3,2,10,11,25,109,50,1,18,86,50,17,48,350,50,7,33,71,50*7D
$GPGSV,3,3,10,13,39,235,50,26,42,239,50*7E
$GPGSA,A,3,04,00,15,28,30,11,01,17,07,13,26,00,1.9,1.2,1.5*32
$GPGGA,000040.00,3352.06667,S,15112.43333,E,8,10,1.2,36.5,M,21.5,M,,*4C
$GPGLL,3352.06667,S,15112.43333,E,000040.00,A*19
$GPVTG,90.00000,T,90.00000,M,0.000,N,0.000,K*4E
$GPZDA,000040.00,15,01,2015,-10,00*4D
$GPGSV,3,1,10,4,12,115,50,15,8,220,50,28,64,200,50,30,63,100,50*79
$GPGSV,3,2,10,11,25,109,50,1,18,86,50,17,48,350,50,7,33,71,50*7D
$GPGSV,3,3,10,13,39,235,50,26,42,239,50*7E
$GPGSA,A,3,04,00,15,28,30,11,01,17,07,13,26,00,1.9,1.2,1.5*32
$GPGGA,000041.00,3352.06667,S,15112.43333,E,8,10,1.2,36.5,M,21.5,M,,*4D
$GPGLL,3352.06667,S,15112.43333,E,000041.00,A*18
$GPVTG,90.00000,T,90.00000,M,0.000,N,0.000,K*4E
$GPZDA,000041.00,15,01,2015,-10,00*4C
$GPGSV,3,1,10,4,12,115,50,15,8,220,50,28,64,200,50,30,63,100,50*79
$GPGSV,3,2,10,11,25,109,50,1,18,86,50,17,48,350,50,7,33,71,50*7D
$GPGSV,3,3,10,13,39,235,50,26,42,239,50*7E
$GPGSA,A,3,04,00,15,28,30,11,01,17,07,13,26,00,1.9,1.2,1.5*32
$GPGGA,000042.00,3352.06667,S,15112.43333,E,8,10,1.2,36.5,M,21.5,M,,*4E
$GPGLL,3352.06667,S,15112.43333,E,000042.00,A*1B
$GPVTG,90.00000,T,90.00000,M,0.000,N,0.000,K*4E
$GPZDA,000042.00,15,01,2015,-10,00*4F
$GPGSV,3,1,10,4,12,115,50,15,8,220,50,28,64,200,50,30,63,100,50*79
$GPGSV,3,2,10,11,25,109,50,1,18,86,50,17,48,350,50,7,33,71,50*7D
$GPGSV,3,3,10,13,39,235,50,26,42,239,50*7E
$GPGSA,A,3,04,00,15,28,30,11,01,17,07,13,26,00,1.9,1.2,1.5*32
$GPGGA,000043.00,3352.06667,S,15112.43333,E,8,10,1.2,36.5,M,21.5,M,,*4F
$GPGLL,3352.06667,S,15112.43333,E,000043.00,A*1A
$GPVTG,90.00000,T,90.00000,M,0.000,N,0.000,K*4E
$GPZDA,000043.00,15,01,2015,-10,00*4E
$GPGSV,3,1,10,4,12,115,50,15,8,220,50,28,64,200,50,30,63,100,50*79
$GPGSV,3,2,10,11,25,109,50,1,18,86,50,17,48,350,50,7,33,71,50*7D
$GPGSV,3,3,10,13,39,235,50,26,42,239,50*7E
$GPGSA,A,3,04,00,15,28,30,11,01,17,07,13,26,00,1.9,1.2,1.5*32
$GPGGA,000044.00,3352.06667,S,15112.43333,E,8,10,1.2,36.5,M,21.5,M,,*48
$GPGLL,3352.06667,S,15112.43333,E,000044.00,A*1D
$GPVTG,90.00000,T,90.00000,M,0.000,N,0.000,K*4E
$GPZDA,000044.00,15,01,2015,-10,00*49
$GPGSV,3,1,10,4,12,115,50,15,8,220,50,28,64,200,50,30,63,100,50*79
$GPGSV,3,2,10,11,25,109,50,1,18,86,50,17,48,350,50,7,33,71,50*7D
$GPGSV,3,3,10,13,39,235,50,26,42,239,50*7E
$GPGSA,A,3,04,00,15,28,30,11,01,17,07,13,26,00,1.9,1.2,1.5*32
$GPGGA,000045.00,3352.06667,S,15112.43333,E,8,10,1.2,36.5,M,21.5,M,,*49
$GPGLL,3352.06667,S,15112.43333,E,000045.00,A*1C
$GPVTG,90.00000,T,90.00000,M,0.000,N,0.000,K*4E
$GPZDA,000045.00,15,01,2015,-10,00*48
$GPGSV,3,1,10,4,12,115,50,15,8,220,50,28,64,200,50,30,63,100,50*79
$GPGSV,3,2,10,11,25,109,50,1,18,86,50,17,48,350,50,7,33,71,50*7D
$GPGSV,3,3,10,13,39,235,50,26,42,239,50*7E
$GPGSA,A,3,04,00,15,28,30,11,01,17,07,13,26,00,1.9,1.2,1.5*32
$GPGGA,000046.00,3352.06667,S,15112.43333,E,8,10,1.2,36.5,M,21.5,M,,*4A
$GPGLL,3352.06667,S,15112.43333,E,000046.00,A*1F
$GPVTG,90.00000,T,90.00000,M,0.000,N,0.000,K*4E
$GPZDA,000046.00,15,01,2015,-10,00*4B
$GPGSV,3,1,10,4,12,115,50,15,8,220,50,28,64,200,50,30,63,100,50*79
$GPGSV,3,2,10,11,25,109,50,1,18,86,50,17,48,350,50,7,33,71,50*7D
$GPGSV,3,3,10,13,39,235,50,26,42,239,50*7E
$GPGSA,A,3,04,00,15,28,30,11,01,17,07,13,26,00,1.9,1.2,1.5*32
$GPGGA,000047.00,3352.06667,S,15112.43333,E,8,10,1.2,36.5,M,21.5,M,,*4B
$GPGLL,3352.06667,S,15112.43333,E,000047.00,A*1E
$GPVTG,90.00000,T,90.00000,M,0.000,N,0.000,K*4E
$GPZDA,000047.00,15,01,2015,-10,00*4A
$GPGSV,3,1,10,4,12,115,50,15,8,220,50,28,64,200,50,30,63,100,50*79
$GPGSV,3,2,10,11,25,109,50,1,18,86,50,17,48,350,50,7,33,71,50*7D
$GPGSV,3,3,10,13,39,235,50,26,42,239,50*7E
$GPGSA,A,3,04,00,15,28,30,11,01,17,07,13,26,00,1.9,1.2,1.5*32
$GPGGA,000048.00,3352.06667,S,15112.43333,E,8,10,1.2,36.5,M,21.5,M,,*44
$GPGLL,3352.06667,S,15112.43333,E,000048.00,A*11
$GPVTG,90.00000,T,90.00000,M,0.000,N,0.000,K*4E
$GPZDA,000048.00,15,01,2015,-10,00*45
$GPGSV,3,1,10,4,12,115,50,15,8,220,50,28,64,200,50,30,63,100,50*79
$GPGSV,3,2,10,11,25,109,50,1,18,86,50,17,48,350,50,7,33,71,50*7D
$GPGSV,3,3,10,13,39,235,50,26,42,239,50*7E
$GPGSA,A,3,04,00,15,28,30,11,01,17,07,13,26,00,1.9,1.2,1.5*32
$GPGGA,000049.00,3352.06667,S,15112.43333,E,8,10,1.2,36.5,M,21.5,M,,*45
$GPGLL,3352.06667,S,15112.43333,E,000049.00,A*10
$GPVTG,90.00000,T,90.00000,M,0.000,N,0.000,K*4E
$GPZDA,000049.00,15,01,2015,-10,00*44
$GPGSV,3,1,10,4,12,115,50,15,8,220,50,28,64,200,50,30,63,100,50*79
$GPGSV,3,2,10,11,25,109,50,1,18,86,50,17,48,350,50,7,33,71,50*7D
$GPGSV,3,3,10,13,39,235,50,26,42,239,50*7E
$GPGSA,A,3,04,00,15,28,30,11,01,17,07,13,26,00,1.9,1.2,1.5*32
$GPGGA,000050.00,3352.06667,S,15112.43333,E,8,10,1.2,36.5,M,21.5,M,,*4D
$GPGLL,3352.06667,S,15112.43333,E,000050.00,A*18
$GPVTG,90.00000,T,90.00000,M,0.000,N,0.000,K*4E
$GPZDA,000050.00,15,01,2015,-10,00*4C
$GPGSV,3,1,10,4,12,115,50,15,8,220,50,28,64,200,50,30,63,100,50*79
$GPGSV,3,2,10,11,25,109,50,1,18,86,50,17,48,350,50,7,33,71,50*7D
$GPGSV,3,3,10,13,39,235,50,26,42,239,50*7E
$GPGSA,A,3,04,00,15,28,30,11,01,17,07,13,26,00,1.9,1.2,1.5*32
$GPGGA,000051.00,3352.06667,S,15112.43333,E,8,10,1.2,36.5,M,21.5,M,,*4C
$GPGLL,3352.06667,S,15112.43333,E,000051.00,A*19
$GPVTG,90.00000,T,90.00000,M,0.000,N,0.000,K*4E
$GPZDA,000051.00,15,01,2015,-10,00*4D
$GPGSV,3,1,10,4,12,115,50,15,8,220,50,28,64,200,50,30,63,100,50*79
$GPGSV,3,2,10,11,25,109,50,1,18,86,50,17,48,350,50,7,33,71,50*7D
$GPGSV,3,3,10,13,39,235,50,26,42,239,50*7E
$GPGSA,A,3,04,00,15,28,30,11,01,17,07,13,26,00,1.9,1.2,1.5*32
$GPGGA,000052.00,3352.06667,S,15112.43333,E,8,10,1.2,36.5,M,21.5,M,,*4F
$GPGLL,3352.06667,S,15112.43333,E,000052.00,A*1A
$GPVTG,90.00000,T,90.00000,M,0.000,N,0.000,K*4E
$GPZDA,000052.00,15,01,2015,-10,00*4E
$GPGSV,3,1,10,4,12,115,50,15,8,220,50,28,64,200,50,30,63,100,50*79
$GPGSV,3,2,10,11,25,109,50,1,18,86,50,17,48,350,50,7,33,71,50*7D
$GPGSV,3,3,10,13,39,235,50,26,42,239,50*7E
$GPGSA,A,3,04,00,15,28,30,11,01,17,07,13,26,00,1.9,1.2,1.5*32
$GPGGA,000053.00,3352.06667,S,15112.43333,E,8,10,1.2,36.5,M,21.5,M,,*4E
$GPGLL,3352.06667,S,15112.43333,E,000053.00,A*1B
$GPVTG,90.00000,T,90.00000,M,0.000,N,0.000,K*4E
$GPZDA,000053.00,15,01,2015,-10,00*4F
$GPGSV,3,1,10,4,12,115,50,15,8,220,50,28,64,200,50,30,63,100,50*79
$GPGSV,3,2,10,11,25,109,50,1,18,86,50,17,48,350,50,7,33,71,50*7D
$GPGSV,3,3,10,13,39,235,50,26,42,239,50*7E
$GPGSA,A,3,04,00,15,28,30,11,01,17,07,13,26,00,1.9,1.2,1.5*32
$GPGGA,000054.00,3352.06667,S,15112.43333,E,8,10,1.2,36.5,M,21.5,M,,*49
$GPGLL,3352.06667,S,15112.43333,E,000054.00,A*1C
$GPVTG,90.00000,T,90.00000,M,0.000,N,0.000,K*4E
$GPZDA,000054.00,15,01,2015,-10,00*48
$GPGSV,3,1,10,4,12,115,50,15,8,220,50,28,64,200,50,30,63,100,50*79
$GPGSV,3,2,10,11,25,109,50,1,18,86,50,17,48,350,50,7,33,71,50*7D
$GPGSV,3,3,10,13,39,236,50,26,42,239,50*7D
$GPGSA,A,3,04,00,15,28,30,11,01,17,07,13,26,00,1.9,1.2,1.5*32
$GPGGA,000055.00,3352.06667,S,15112.43333,E,8,10,1.2,36.5,M,21.5,M,,*48
$GPGLL,3352.06667,S,15112.43333,E,000055.00,A*1D
$GPVTG,90.00000,T,90.00000,M,0.000,N,0.000,K*4E
$GPZDA,000055.00,15,01,2015,-10,00*49
$GPGSV,3,1,10,4,12,115,50,15,8,220,50,28,64,200,50,30,63,100,50*79
$GPGSV,3,2,10,11,25,109,50,1,18,86,50,17,48,350,50,7,33,71,50*7D
$GPGSV,3,3,10,13,39,236,50,26,42,239,50*7D
$GPGSA,A,3,04,00,15,28,30,11,01,17,07,13,26,00,1.9,1.2,1.5*32
$GPGGA,000056.00,3352.06667,S,15112.43333,E,8,10,1.2,36.5,M,21.5,M,,*4B
$GPGLL,3352.06667,S,15112.43333,E,000056.00,A*1E
$GPVTG,90.00000,T,90.00000,M,0.000,N,0.000,K*4E
$GPZDA,000056.00,15,01,2015,-10,00*4A
$GPGSV,3,1,10,4,12,115,50,15,8,220,50,28,64,200,50,30,63,100,50*79
$GPGSV,3,2,10,11,25,109,50,1,18,86,50,17,48,350,50,7,33,71,50*7D
$GPGSV,3,3,10,13,39,236,50,26,42,239,50*7D
$GPGSA,A,3,04,00,15,28,30,11,01,17,07,13,26,00,1.9,1.2,1.5*32
$GPGGA,000057.00,3352.06667,S,15112.43333,E,8,10,1.2,36.5,M,21.5,M,,*4A
$GPGLL,3352.06667,S,15112.43333,E,000057.00,A*1F
$GPVTG,90.00000,T,90.00000,M,0.000,N,0.000,K*4E
$GPZDA,000057.00,15,01,2015,-10,00*4B
$GPGSV,3,1,10,4,12,115,50,15,8,220,50,28,64,200,50,30,63,100,50*79
$GPGSV,3,2,10,11,25,109,50,1,18,86,50,17,48,350,50,7,33,71,50*7D
$GPGSV,3,3,10,13,39,236,50,26,42,239,50*7D
$GPGSA,A,3,04,00,15,28,30,11,01,17,07,13,26,00,1.9,1.2,1.5*32
$GPGGA,000058.00,3352.06667,S,15112.43333,E,8,10,1.2,36.5,M,21.5,M,,*45
$GPGLL,3352.06667,S,15112.43333,E,000058.00,A*10
$GPVTG,90.00000,T,90.00000,M,0.000,N,0.000,K*4E
$GPZDA,000058.00,15,01,2015,-10,00*44
$GPGSV,3,1,10,4,12,115,50,15,8,220,50,28,64,200,50,30,63,100,50*79
$GPGSV,3,2,10,11,25,109,50,1,18,86,50,17,48,350,50,7,33,71,50*7D
$GPGSV,3,3,10,13,39,236,50,26,42,239,50*7D
$GPGSA,A,3,04,00,15,28,30,11,01,17,07,13,26,00,1.9,1.2,1.5*32
$GPGGA,000059.00,3352.06667,S,15112.43333,E,8,10,1.2,36.5,M,21.5,M,,*44
$GPGLL,3352.06667,S,15112.43333,E,000059.00,A*11
$GPVTG,90.00000,T,90.00000,M,0.000,N,0.000,K*4E
$GPZDA,000059.00,15,01,2015,-10,00*45
$GPGSV,3,1,10,4,12,115,50,15,8,220,50,28,64,200,50,30,63,100,50*79
$GPGSV,3,2,10,11,25,109,50,1,18,86,50,17,48,350,50,7,33,71,50*7D
$GPGSV,3,3,10,13,39,236,50,26,42,239,50*7D
$GPGSA,A,3,04,00,15,28,30,11,01,17,07,13,26,00,1.9,1.2,1.5*32
$GPGGA,000100.00,3352.06667,S,15112.43333,E,8,10,1.2,36.5,M,21.5,M,,*49
$GPGLL,3352.06667,S,15112.43333,E,000100.00,A*1C
$GPVTG,90.00000,T,90.00000,M,0.000,N,0.000,K*4E
$GPZDA,000100.00,15,01,2015,-10,00*48
$GPGSV,3,1,10,4,12,115,50,15,8,220,50,28,64,200,50,30,63,99,50*48
$GPGSV,3,2,10,11,25,109,50,1,18,86,50,17,48,350,50,7,33,71,50*7D
$GPGSV,3,3,10,13,39,236,50,26,42,239,50*7D
$GPGSA,A,3,04,00,15,28,30,11,01,17,07,13,26,00,1.9,1.2,1.5*32
$GPGGA,000101.00,3352.06667,S,15112.43333,E,8,10,1.2,36.5,M,21.5,M,,*48
$GPGLL,3352.06667,S,15112.43333,E,000101.00,A*1D
$GPVTG,90.00000,T,90.00000,M,0.000,N,0.000,K*4E
$GPZDA,000101.00,15,01,2015,-10,00*49
$GPGSV,3,1,10,4,12,115,50,15,8,220,50,28,64,200,50,30,63,99,50*48
$GPGSV,3,2,10,11,25,109,50,1,18,86,50,17,48,350,50,7,33,71,50*7D
$GPGSV,3,3,10,13,39,236,50,26,42,239,50*7D
$GPGSA,A,3,04,00,15,28,30,11,01,17,07,13,26,00,1.9,1.2,1.5*32
$GPGGA,000102.00,3352.06667,S,15112.43333,E,8,10,1.2,36.5,M,21.5,M,,*4B
$GPGLL,3352.06667,S,15112.43333,E,000102.00,A*1E
$GPVTG,90.00000,T,90.00000,M,0.000,N,0.000,K*4E
$GPZDA,000102.00,15,01,2015,-10,00*4A
$GPGSV,3,1,10,4,12,115,50,15,8,220,50,28,64,200,50,30,63,99,50*48
$GPGSV,3,2,10,11,25,109,50,1,18,86,50,17,48,350,50,7,33,71,50*7D
$GPGSV,3,3,10,13,39,236,50,26,42,239,50*7D
$GPGSA,A,3,04,00,15,28,30,11,01,17,07,13,26,00,1.9,1.2,1.5*32
$GPGGA,000103.00,3352.06667,S,15112.43333,E,8,10,1.2,36.5,M,21.5,M,,*4A
$GPGLL,3352.06667,S,15112.43333,E,000103.00,A*1F
$GPVTG,90.00000,T,90.00000,M,0.000,N,0.000,K*4E
$GPZDA,000103.00,15,01,2015,-10,00*4B
$GPGSV,3,1,10,4,12,115,50,15,8,220,50,28,64,200,50,30,63,99,50*48
$GPGSV,3,2,10,11,25,109,50,1,18,86,50,17,48,350,50,7,33,71,50*7D
$GPGSV,3,3,10,13,39,236,50,26,42,239,50*7D
$GPGSA,A,3,04,00,15,28,30,11,01,17,07,13,26,00,1.9,1.2,1.5*32
$GPGGA,000104.00,3352.06667,S,15112.43333,E,8,10,1.2,36.5,M,21.5,M,,*4D
$GPGLL,3352.06667,S,15112.43333,E,000104.00,A*18
$GPVTG,90.00000,T,90.00000,M,0.000,N,0.000,K*4E
$GPZDA,000104.00,15,01,2015,-10,00*4C
$GPGSV,3,1,10,4,12,115,50,15,8,220,50,28,64,200,50,30,63,99,50*48
$GPGSV,3,2,10,11,25,109,50,1,18,86,50,17,48,350,50,7,33,71,50*7D
$GPGSV,3,3,10,13,39,236,50,26,42,239,50*7D
$GPGSA,A,3,04,00,15,28,30,11,01,17,07,13,26,00,1.9,1.2,1.5*32
$GPGGA,000105.00,3352.06667,S,15112.43333,E,8,10,1.2,36.5,M,21.5,M,,*4C
$GPGLL,3352.06667,S,15112.43333,E,000105.00,A*19
$GPVTG,90.00000,T,90.00000,M,0.000,N,0.000,K*4E
$GPZDA,000105.00,15,01,2015,-10,00*4D
$GPGSV,3,1,10,4,12,115,50,15,8,220,50,28,64,200,50,30,63,99,50*48
$GPGSV,3,2,10,11,25,109,50,1,18,86,50,17,48,350,50,7,33,71,50*7D
$GPGSV,3,3,10,13,39,236,50,26,42,239,50*7D
$GPGSA,A,3,04,00,15,28,30,11,01,17,07,13,26,00,1.9,1.2,1.5*32
$GPGGA,000106.00,3352.06667,S,15112.43333,E,8,10,1.2,36.5,M,21.5,M,,*4F
$GPGLL,3352.06667,S,15112.43333,E,000106.00,A*1A
$GPVTG,90.00000,T,90.00000,M,0.000,N,0.000,K*4E
$GPZDA,000106.00,15,01,2015,-10,00*4E
$GPGSV,3,1,10,4,12,115,50,15,8,220,50,28,64,200,50,30,63,99,50*48
$GPGSV,3,2,10,11,25,109,50,1,18,86,50,17,48,350,50,7,33,71,50*7D
$GPGSV,3,3,10,13,39,236,50,26,42,239,50*7D
$GPGSA,A,3,04,00,15,28,30,11,01,17,07,13,26,00,1.9,1.2,1.5*32
$GPGGA,000107.00,3352.06667,S,15112.43333,E,8,10,1.2,36.5,M,21.5,M,,*4E
$GPGLL,3352.06667,S,15112.43333,E,000107.00,A*1B
$GPVTG,90.00000,T,90.00000,M,0.000,N,0.000,K*4E
$GPZDA,000107.00,15,01,2015,-10,00*4F
$GPGSV,3,1,10,4,12,115,50,15,8,220,50,28,64,200,50,30,63,99,50*48
$GPGSV,3,2,10,11,25,109,50,1,19,86,50,17,48,350,50,7,33,71,50*7C
$GPGSV,3,3,10,13,39,236,50,26,42,239,50*7D
$GPGSA,A,3,04,00,15,28,30,11,01,17,07,13,26,00,1.9,1.2,1.5*32
$GPGGA,000108.00,3352.06667,S,15112.43333,E,8,10,1.2,36.5,M,21.5,M,,*41
$GPGLL,3352.06667,S,15112.43333,E,000108.00,A*14
$GPVTG,90.00000,T,90.00000,M,0.000,N,0.000,K*4E
$GPZDA,000108.00,15,01,2015,-10,00*40
$GPGSV,3,1,10,4,12,115,50,15,8,220,50,28,64,200,50,30,63,99,50*48
$GPGSV,3,2,10,11,25,109,50,1,19,86,50,17,48,350,50,7,33,71,50*7C
$GPGSV,3,3,10,13,39,236,50,26,42,239,50*7D
$GPGSA,A,3,04,00,15,28,30,11,01,17,07,13,26,00,1.9,1.2,1.5*32
$GPGGA,000109.00,3352.06667,S,15112.43333,E,8,10,1.2,36.5,M,21.5,M,,*40
$GPGLL,3352.06667,S,15112.43333,E,000109.00,A*15
$GPVTG,90.00000,T,90.00000,M,0.000,N,0.000,K*4E
$GPZDA,000109.00,15,01,2015,-10,00*41
$GPGSV,3,1,10,4,12,115,50,15,8,220,50,28,64,200,50,30,63,99,50*48
$GPGSV,3,2,10,11,25,109,50,1,19,86,50,17,48,350,50,7,33,71,50*7C
$GPGSV,3,3,10,13,39,236,50,26,42,239,50*7D
$GPGSA,A,3,04,00,15,28,30,11,01,17,07,13,26,00,1.9,1.2,1.5*32
$GPGGA,000110.00,3352.06667,S,15112.43333,E,8,10,1.2,36.5,M,21.5,M,,*48
$GPGLL,3352.06667,S,15112.43333,E,000110.00,A*1D
$GPVTG,90.00000,T,90.00000,M,0.000,N,0.000,K*4E
$GPZDA,000110.00,15,01,2015,-10,00*49
$GPGSV,3,1,10,4,12,115,50,15,8,220,50,28,64,200,50,30,63,99,50*48
$GPGSV,3,2,10,11,25,109,50,1,19,86,50,17,49,350,50,7,33,71,50*7D
$GPGSV,3,3,10,13,39,236,50,26,42,239,50*7D
$GPGSA,A,3,04,00,15,28,30,11,01,17,07,13,26,00,1.9,1.2,1.5*32
$GPGGA,000111.00,3352.06667,S,15112.43333,E,8,10,1.2,36.5,M,21.5,M,,*49
$GPGLL,3352.06667,S,15112.43333,E,000111.00,A*1C
$GPVTG,90.00000,T,90.00000,M,0.000,N,0.000,K*4E
$GPZDA,000111.00,15,01,2015,-10,00*48
$GPGSV,3,1,10,4,12,115,50,15,8,220,50,28,64,200,50,30,63,99,50*48
$GPGSV,3,2,10,11,25,109,50,1,19,86,50,17,49,350,50,7,33,71,50*7D
$GPGSV,3,3,10,13,39,236,50,26,42,239,50*7D
$GPGSA,A,3,04,00,15,28,30,11,01,17,07,13,26,00,1.9,1.2,1.5*32
$GPGGA,000112.00,3352.06667,S,15112.43333,E,8,10,1.2,36.5,M,21.5,M,,*4A
$GPGLL,3352.06667,S,15112.43333,E,000112.00,A*1F
$GPVTG,90.00000,T,90.00000,M,0.000,N,0.000,K*4E
$GPZDA,000112.00,15,01,2015,-10,00*4B
$GPGSV,3,1,10,4,12,115,50,15,8,220,50,28,64,200,50,30,63,99,50*48
$GPGSV,3,2,10,11,25,109,50,1,19,86,50,17,49,350,50,7,33,71,50*7D
$GPGSV,3,3,10,13,39,236,50,26,42,239,50*7D
$GPGSA,A,3,04,00,15,28,30,11,01,17,07,13,26,00,1.9,1.2,1.5*32
$GPGGA,000113.00,3352.06667,S,15112.43333,E,8,10,1.2,36.5,M,21.5,M,,*4B
$GPGLL,3352.06667,S,15112.43333,E,000113.00,A*1E
$GPVTG,90.00000,T,90.00000,M,0.000,N,0.000,K*4E
$GPZDA,000113.00,15,01,2015,-10,00*4A
$GPGSV,3,1,10,4,12,115,50,15,8,220,50,28,64,200,50,30,63,99,50*48
$GPGSV,3,2,10,11,25,109,50,1,19,86,50,17,49,350,50,7,33,71,50*7D
$GPGSV,3,3,10,13,39,236,50,26,42,239,50*7D
$GPGSA,A,3,04,00,15,28,30,11,01,17,07,13,26,00,1.9,1.2,1.5*32
$GPGGA,000114.00,3352.06667,S,15112.43333,E,8,10,1.2,36.5,M,21.5,M,,*4C
$GPGLL,3352.06667,S,15112.43333,E,000114.00,A*19
$GPVTG,90.00000,T,90.00000,M,0.000,N,0.000,K*4E
$GPZDA,000114.00,15,01,2015,-10,00*4D
$GPGSV,3,1,10,4,12,115,50,15,8,220,50,28,64,200,50,30,63,99,50*48
$GPGSV,3,2,10,11,25,109,50,1,19,86,50,17,49,350,50,7,33,71,50*7D
$GPGSV,3,3,10,13,39,236,50,26,42,239,50*7D
$GPGSA,A,3,04,00,15,28,30,11,01,17,07,13,26,00,1.9,1.2,1.5*32
$GPGGA,000115.00,3352.06667,S,15112.43333,E,8,10,1.2,36.5,M,21.5,M,,*4D
$GPGLL,3352.06667,S,15112.43333,E,000115.00,A*18
$GPVTG,90.00000,T,90.00000,M,0.000,N,0.000,K*4E
$GPZDA,000115.00,15,01,2015,-10,00*4C
$GPGSV,3,1,10,4,12,115,50,15,8,220,50,28,64,200,50,30,63,99,50*48
$GPGSV,3,2,10,11,25,109,50,1,19,86,50,17,49,350,50,7,33,71,50*7D
$GPGSV,3,3,10,13,39,236,50,26,42,239,50*7D
$GPGSA,A,3,04,00,15,28,30,11,01,17,07,13,26,00,1.9,1.2,1.5*32
$GPGGA,000116.00,3352.06667,S,15112.43333,E,8,10,1.2,36.5,M,21.5,M,,*4E
$GPGLL,3352.06667,S,15112.43333,E,000116.00,A*1B
$GPVTG,90.00000,T,90.00000,M,0.000,N,0.000,K*4E
$GPZDA,000116.00,15,01,2015,-10,00*4F
$GPGSV,3,1,10,4,12,115,50,15,8,220,50,28,64,200,50,30,63,99,50*48
$GPGSV,3,2,10,11,25,109,50,1,19,86,50,17,49,350,50,7,33,71,50*7D
$GPGSV,3,3,10,13,39,236,50,26,42,239,50*7D
$GPGSA,A,3,04,00,15,28,30,11,01,17,07,13,26,00,1.9,1.2,1.5*32
$GPGGA,000117.00,3352.06667,S,15112.43333,E,8,10,1.2,36.5,M,21.5,M,,*4F
$GPGLL,3352.06667,S,15112.43333,E,000117.00,A*1A
$GPVTG,90.00000,T,90.00000,M,0.000,N,0.000,K*4E
$GPZDA,000117.00,15,01,2015,-10,00*4E
$GPGSV,3,1,10,4,12,115,50,15,8,220,50,28,64,200,50,30,63,99,50*48
$GPGSV,3,2,10,11,25,109,50,1,19,86,50,17,49,350,50,7,33,71,50*7D
$GPGSV,3,3,10,13,39,236,50,26,42,239,50*7D
$GPGSA,A,3,04,00,15,28,30,11,01,17,07,13,26,00,1.9,1.2,1.5*32
$GPGGA,000118.00,3352.06667,S,15112.43333,E,8,10,1.2,36.5,M,21.5,M,,*40
$GPGLL,3352.06667,S,15112.43333,E,000118.00,A*15
$GPVTG,90.00000,T,90.00000,M,0.000,N,0.000,K*4E
$GPZDA,000118.00,15,01,2015,-10,00*41
$GPGSV,3,1,10,4,12,115,50,15,8,220,50,28,64,200,50,30,63,99,50*48
$GPGSV,3,2,10,11,25,109,50,1,19,86,50,17,49,350,50,7,33,71,50*7D
$GPGSV,3,3,10,13,39,236,50,26,42,239,50*7D
$GPGSA,A,3,04,00,15,28,30,11,01,17,07,13,26,00,1.9,1.2,1.5*32
$GPGGA,000119.00,3352.06667,S,15112.43333,E,8,10,1.2,36.5,M,21.5,M,,*41
$GPGLL,3352.06667,S,15112.43333,E,000119.00,A*14
$GPVTG,90.00000,T,90.00000,M,0.000,N,0.000,K*4E
$GPZDA,000119.00,15,01,2015,-10,00*40
$GPGSV,3,1,10,4,12,115,50,15,8,220,50,28,64,200,50,30,63,99,50*48
$GPGSV,3,2,10,11,25,109,50,1,19,86,50,17,49,350,50,7,33,71,50*7D
$GPGSV,3,3,10,13,39,236,50,26,42,239,50*7D
$GPGSA,A,3,04,00,15,28,30,11,01,17,07,13,26,00,1.9,1.2,1.5*32
$GPGGA,000120.00,3352.06667,S,15112.43333,E,8,10,1.2,36.5,M,21.5,M,,*4B
$GPGLL,3352.06667,S,15112.43333,E,000120.00,A*1E
$GPVTG,90.00000,T,90.00000,M,0.000,N,0.000,K*4E
$GPZDA,000120.00,15,01,2015,-10,00*4A
$GPGSV,3,1,10,4,12,115,50,15,8,220,50,28,64,200,50,30,62,99,50*49
$GPGSV,3,2,10,11,25,109,50,1,19,86,50,17,49,350,50,7,33,71,50*7D
$GPGSV,3,3,10,13,39,236,50,26,42,239,50*7D
$GPGSA,A,3,04,00,15,28,30,11,01,17,07,13,26,00,1.9,1.2,1.5*32
$GPGGA,000121.00,3352.06667,S,15112.43333,E,8,10,1.2,36.5,M,21.5,M,,*4A
$GPGLL,3352.06667,S,15112.43333,E,000121.00,A*1F
$GPVTG,90.00000,T,90.00000,M,0.000,N,0.000,K*4E
$GPZDA,000121.00,15,01,2015,-10,00*4B
$GPGSV,3,1,10,4,12,115,50,15,8,220,50,28,64,200,50,30,62,99,50*49
$GPGSV,3,2,10,11,25,109,50,1,19,86,50,17,49,350,50,7,33,71,50*7D
$GPGSV,3,3,10,13,39,236,50,26,42,239,50*7D
$GPGSA,A,3,04,00,15,28,30,11,01,17,07,13,26,00,1.9,1.2,1.5*32
$GPGGA,000122.00,3352.06667,S,15112.43333,E,8,10,1.2,36.5,M,21.5,M,,*49
$GPGLL,3352.06667,S,15112.43333,E,000122.00,A*1C
$GPVTG,90.00000,T,90.00000,M,0.000,N,0.000,K*4E
$GPZDA,000122.00,15,01,2015,-10,00*48
$GPGSV,3,1,10,4,12,115,50,15,8,220,50,28,64,199,50,30,62,99,50*4A
$GPGSV,3,2,10,11,25,109,50,1,19,86,50,17,49,350,50,7,33,71,50*7D
$GPGSV,3,3,10,13,39,236,50,26,42,239,50*7D
$GPGSA,A,3,04,00,15,28,30,11,01,17,07,13,26,00,1.9,1.2,1.5*32
$GPGGA,000123.00,3352.06667,S,15112.43333,E,8,10,1.2,36.5,M,21.5,M,,*48
$GPGLL,3352.06667,S,15112.43333,E,000123.00,A*1D
$GPVTG,90.00000,T,90.00000,M,0.000,N,0.000,K*4E
$GPZDA,000123.00,15,01,2015,-10,00*49
$GPGSV,3,1,10,4,12,115,50,15,8,220,50,28,64,199,50,30,62,99,50*4A
$GPGSV,3,2,10,11,25,109,50,1,19,86,50,17,49,350,50,7,33,71,50*7D
$GPGSV,3,3,10,13,39,236,50,26,42,239,50*7D
$GPGSA,A,3,04,00,15,28,30,11,01,17,07,13,26,00,1.9,1.2,1.5*32
$GPGGA,000124.00,3352.06667,S,15112.43333,E,8,10,1.2,36.5,M,21.5,M,,*4F
$GPGLL,3352.06667,S,15112.43333,E,000124.00,A*1A
$GPVTG,90.00000,T,90.00000,M,0.000,N,0.000,K*4E
$GPZDA,000124.00,15,01,2015,-10,00*4E
$GPGSV,3,1,10,4,12,115,50,15,8,220,50,28,64,199,50,30,62,99,50*4A
$GPGSV,3,2,10,11,25,109,50,1,19,86,50,17,49,350,50,7,33,71,50*7D
$GPGSV,3,3,10,13,39,236,50,26,42,239,50*7D
$GPGSA,A,3,04,00,15,28,30,11,01,17,07,13,26,00,1.9,1.2,1.5*32
$GPGGA,000125.00,3352.06667,S,15112.43333,E,8,10,1.2,36.5,M,21.5,M,,*4E
$GPGLL,3352.06667,S,15112.43333,E,000125.00,A*1B
$GPVTG,90.00000,T,90.00000,M,0.000,N,0.000,K*4E
$GPZDA,000125.00,15,01,2015,-10,00*4F
$GPGSV,3,1,10,4,12,115,50,15,8,220,50,28,64,199,50,30,62,99,50*4A
$GPGSV,3,2,10,11,25,109,50,1,19,86,50,17,49,350,50,7,33,71,50*7D
$GPGSV,3,3,10,13,39,236,50,26,42,239,50*7D
$GPGSA,A,3,04,00,15,28,30,11,01,17,07,13,26,00,1.9,1.2,1.5*32
$GPGGA,000126.00,3352.06667,S,15112.43333,E,8,10,1.2,36.5,M,21.5,M,,*4D
$GPGLL,3352.06667,S,15112.43333,E,000126.00,A*18
$GPVTG,90.00000,T,90.00000,M,0.000,N,0.000,K*4E
$GPZDA,000126.00,15,01,2015,-10,00*4C
$GPGSV,3,1,10,4,12,115,50,15,8,220,50,28,64,199,50,30,62,99,50*4A
$GPGSV,3,2,10,11,25,109,50,1,19,86,50,17,49,350,50,7,33,71,50*7D
$GPGSV,3,3,10,13,39,236,50,26,42,239,50*7D
$GPGSA,A,3,04,00,15,28,30,11,01,17,07,13,26,00,1.9,1.2,1.5*32
$GPGGA,000127.00,3352.06667,S,15112.43333,E,8,10,1.2,36.5,M,21.5,M,,*4C
$GPGLL,3352.06667,S,15112.43333,E,000127.00,A*19
$GPVTG,90.00000,T,90.00000,M,0.000,N,0.000,K*4E
$GPZDA,000127.00,15,01,2015,-10,00*4D
$GPGSV,3,1,10,4,12,115,50,15,8,220,50,28,64,199,50,30,62,99,50*4A
$GPGSV,3,2,10,11,25,109,50,1,19,86,50,17,49,350,50,7,33,71,50*7D
$GPGSV,3,3,10,13,39,236,50,26,42,239,50*7D
$GPGSA,A,3,04,00,15,28,30,11,01,17,07,13,26,00,1.9,1.2,1.5*32
$GPGGA,000128.00,3352.06667,S,15112.43333,E,8,10,1.2,36.5,M,21.5,M,,*43
$GPGLL,3352.06667,S,15112.43333,E,000128.00,A*16
$GPVTG,90.00000,T,90.00000,M,0.000,N,0.000,K*4E
$GPZDA,000128.00,15,01,2015,-10,00*42
$GPGSV,3,1,10,4,12,115,50,15,8,220,50,28,64,199,50,30,62,99,50*4A
$GPGSV,3,2,10,11,25,109,50,1,19,86,50,17,49,350,50,7,33,71,50*7D
$GPGSV,3,3,10,13,39,236,50,26,42,239,50*7D
$GPGSA,A,3,04,00,15,28,30,11,01,17,07,13,26,00,1.9,1.2,1.5*32
$GPGGA,000129.00,3352.06667,S,15112.43333,E,8,10,1.2,36.5,M,21.5,M,,*42
$GPGLL,3352.06667,S,15112.43333,E,000129.00,A*17
$GPVTG,90.00000,T,90.00000,M,0.000,N,0.000,K*4E
$GPZDA,000129.00,15,01,2015,-10,00*43
$GPGSV,3,1,10,4,12,115,50,15,8,220,50,28,64,199,50,30,62,99,50*4A
$GPGSV,3,2,10,11,25,109,50,1,19,86,50,17,49,350,50,7,33,71,50*7D
$GPGSV,3,3,10,13,39,236,50,26,42,239,50*7D
$GPGSA,A,3,04,00,15,28,30,11,01,17,07,13,26,00,1.9,1.2,1.5*32
$GPGGA,000130.00,3352.06667,S,15112.43333,E,8,10,1.2,36.5,M,21.5,M,,*4A
$GPGLL,3352.06667,S,15112.43333,E,000130.00,A*1F
$GPVTG,90.00000,T,90.00000,M,0.000,N,0.000,K*4E
$GPZDA,000130.00,15,01,2015,-10,00*4B
$GPGSV,3,1,10,4,12,115,50,15,8,220,50,28,64,199,50,30,62,99,50*4A
$GPGSV,3,2,10,11,25,109,50,1,19,86,50,17,49,350,50,7,33,71,50*7D
$GPGSV,3,3,10,13,39,236,50,26,42,239,50*7D
$GPGSA,A,3,04,00,15,28,30,11,01,17,07,13,26,00,1.9,1.2,1.5*32
$GPGGA,000131.00,3352.06667,S,15112.43333,E,8,10,1.2,36.5,M,21.5,M,,*4B
$GPGLL,3352.06667,S,15112.43333,E,000131.00,A*1E
$GPVTG,90.00000,T,90.00000,M,0.000,N,0.000,K*4E
$GPZDA,000131.00,15,01,2015,-10,00*4A
$GPGSV,3,1,10,4,12,115,50,15,8,220,50,28,64,199,50,30,62,99,50*4A
$GPGSV,3,2,10,11,25,109,50,1,19,86,50,17,49,350,50,7,33,71,50*7D
$GPGSV,3,3,10,13,39,236,50,26,42,239,50*7D
$GPGSA,A,3,04,00,15,28,30,11,01,17,07,13,26,00,1.9,1.2,1.5*32
$GPGGA,000132.00,3352.06667,S,15112.43333,E,8,10,1.2,36.5,M,21.5,M,,*48
$GPGLL,3352.06667,S,15112.43333,E,000132.00,A*1D
$GPVTG,90.00000,T,90.00000,M,0.000,N,0.000,K*4E
$GPZDA,000132.00,15,01,2015,-10,00*49
$GPGSV,3,1,10,4,12,115,50,15,8,220,50,28,64,199,50,30,62,99,50*4A
$GPGSV,3,2,10,11,25,109,50,1,19,86,50,17,49,350,50,7,33,71,50*7D
$GPGSV,3,3,10,13,39,236,50,26,42,239,50*7D
$GPGSA,A,3,04,00,15,28,30,11,01,17,07,13,26,00,1.9,1.2,1.5*32
$GPGGA,000133.00,3352.06667,S,15112.43333,E,8,10,1.2,36.5,M,21.5,M,,*49
$GPGLL,3352.06667,S,15112.43333,E,000133.00,A*1C
$GPVTG,90.00000,T,90.00000,M,0.000,N,0.000,K*4E
$GPZDA,000133.00,15,01,2015,-10,00*48
$GPGSV,3,1,10,4,12,115,50,15,8,220,50,28,64,199,50,30,62,99,50*4A
$GPGSV,3,2,10,11,25,109,50,1,19,86,50,17,49,350,50,7,33,71,50*7D
$GPGSV,3,3,10,13,39,236,50,26,42,239,50*7D
$GPGSA,A,3,04,00,15,28,30,11,01,17,07,13,26,00,1.9,1.2,1.5*32
$GPGGA,000134.00,3352.06667,S,15112.43333,E,8,10,1.2,36.5,M,21.5,M,,*4E
$GPGLL,3352.06667,S,15112.43333,E,000134.00,A*1B
$GPVTG,90.00000,T,90.00000,M,0.000,N,0.000,K*4E
$GPZDA,000134.00,15,01,2015,-10,00*4F
$GPGSV,3,1,10,4,12,115,50,15,8,220,50,28,64,199,50,30,62,99,50*4A
$GPGSV,3,2,10,11,25,109,50,1,19,86,50,17,49,350,50,7,33,71,50*7D
$GPGSV,3,3,10,13,39,236,50,26,42,239,50*7D
$GPGSA,A,3,04,00,15,28,30,11,01,17,07,13,26,00,1.9,1.2,1.5*32
$GPGGA,000135.00,3352.06667,S,15112.43333,E,8,10,1.2,36.5,M,21.5,M,,*4F
$GPGLL,3352.06667,S,15112.43333,E,000135.00,A*1A
$GPVTG,90.00000,T,90.00000,M,0.000,N,0.000,K*4E
$GPZDA,000135.00,15,01,2015,-10,00*4E
$GPGSV,3,1,10,4,12,115,50,15,8,220,50,28,64,199,50,30,62,99,50*4A
$GPGSV,3,2,10,11,25,109,50,1,19,86,50,17,49,350,50,7,33,71,50*7D
$GPGSV,3,3,10,13,39,236,50,26,42,239,50*7D
$GPGSA,A,3,04,00,15,28,30,11,01,17,07,13,26,00,1.9,1.2,1.5*32
$GPGGA,000136.00,3352.06667,S,15112.43333,E,8,10,1.2,36.5,M,21.5,M,,*4C
$GPGLL,3352.06667,S,15112.43333,E,000136.00,A*19
$GPVTG,90.00000,T,90.00000,M,0.000,N,0.000,K*4E
$GPZDA,000136.00,15,01,2015,-10,00*4D
$GPGSV,3,1,10,4,12,115,50,15,8,220,50,28,64,199,50,30,62,99,50*4A
$GPGSV,3,2,10,11,25,110,50,1,19,86,50,17,49,350,50,7,33,71,50*75
$GPGSV,3,3,10,13,39,236,50,26,42,239,50*7D
$GPGSA,A,3,04,00,15,28,30,11,01,17,07,13,26,00,1.9,1.2,1.5*32
$GPGGA,000137.00,3352.06667,S,15112.43333,E,8,10,1.2,36.5,M,21.5,M,,*4D
$GPGLL,3352.06667,S,15112.43333,E,000137.00,A*18
$GPVTG,90.00000,T,90.00000,M,0.000,N,0.000,K*4E
$GPZDA,000137.00,15,01,2015,-10,00*4C
$GPGSV,3,1,10,4,12,115,50,15,8,220,50,28,64,199,50,30,62,99,50*4A
$GPGSV,3,2,10,11,25,110,50,1,19,86,50,17,49,350,50,7,33,71,50*75
$GPGSV,3,3,10,13,39,236,50,26,42,239,50*7D
$GPGSA,A,3,04,00,15,28,30,11,01,17,07,13,26,00,1.9,1.2,1.5*32
$GPGGA,000138.00,3352.06667,S,15112.43333,E,8,10,1.2,36.5,M,21.5,M,,*42
$GPGLL,3352.06667,S,15112.43333,E,000138.00,A*17
$GPVTG,90.00000,T,90.00000,M,0.000,N,0.000,K*4E
$GPZDA,000138.00,15,01,2015,-10,00*43
$GPGSV,3,1,10,4,12,115,50,15,8,220,50,28,64,199,50,30,62,99,50*4A
$GPGSV,3,2,10,11,25,110,50,1,19,86,50,17,49,350,50,7,33,71,50*75
$GPGSV,3,3,10,13,39,236,50,26,42,239,50*7D
$GPGSA,A,3,04,00,15,28,30,11,01,17,07,13,26,00,1.9,1.2,1.5*32
$GPGGA,000139.00,3352.06667,S,15112.43333,E,8,10,1.2,36.5,M,21.5,M,,*43
$GPGLL,3352.06667,S,15112.43333,E,000139.00,A*16
$GPVTG,90.00000,T,90.00000,M,0.000,N,0.000,K*4E
$GPZDA,000139.00,15,01,2015,-10,00*42
$GPGSV,3,1,10,4,12,115,50,15,8,220,50,28,64,199,50,30,62,99,50*4A
$GPGSV,3,2,10,11,25,110,50,1,19,86,50,17,49,350,50,7,33,71,50*75
$GPGSV,3,3,10,13,39,236,50,26,42,239,50*7D
$GPGSA,A,3,04,00,15,28,30,11,01,17,07,13,26,00,1.9,1.2,1.5*32
$GPGGA,000140.00,3352.06667,S,15112.43333,E,8,10,1.2,36.5,M,21.5,M,,*4D
$GPGLL,3352.06667,S,15112.43333,E,000140.00,A*18
$GPVTG,90.00000,T,90.00000,M,0.000,N,0.000,K*4E
$GPZDA,000140.00,15,01,2015,-10,00*4C
$GPGSV,3,1,10,4,12,115,50,15,8,220,50,28,64,199,50,30,62,99,50*4A
$GPGSV,3,2,10,11,25,110,50,1,19,86,50,17,49,350,50,7,33,71,50*75
$GPGSV,3,3,10,13,39,236,50,26,42,239,50*7D
$GPGSA,A,3,04,00,15,28,30,11,01,17,07,13,26,00,1.9,1.2,1.5*32
$GPGGA,000141.00,3352.06667,S,15112.43333,E,8,10,1.2,36.5,M,21.5,M,,*4C
$GPGLL,3352.06667,S,15112.43333,E,000141.00,A*19
$GPVTG,90.00000,T,90.00000,M,0.000,N,0.000,K*4E
$GPZDA,000141.00,15,01,2015,-10,00*4D
$GPGSV,3,1,10,4,12,115,50,15,8,220,50,28,64,199,50,30,62,99,50*4A
$GPGSV,3,2,10,11,25,110,50,1,19,86,50,17,49,350,50,7,33,71,50*75
$GPGSV,3,3,10,13,39,236,50,26,42,239,50*7D
$GPGSA,A,3,04,00,15,28,30,11,01,17,07,13,26,00,1.9,1.2,1.5*32
$GPGGA,000142.00,3352.06667,S,15112.43333,E,8,10,1.2,36.5,M,21.5,M,,*4F
$GPGLL,3352.06667,S,15112.43333,E,000142.00,A*1A
$GPVTG,90.00000,T,90.00000,M,0.000,N,0.000,K*4E
$GPZDA,000142.00,15,01,2015,-10,00*4E
$GPGSV,3,1,10,4,12,115,50,15,8,220,50,28,64,199,50,30,62,99,50*4A
$GPGSV,3,2,10,11,25,110,50,1,19,86,50,17,49,350,50,7,33,71,50*75
$GPGSV,3,3,10,13,39,236,50,26,42,239,50*7D
$GPGSA,A,3,04,00,15,28,30,11,01,17,07,13,26,00,1.9,1.2,1.5*32
$GPGGA,000143.00,3352.06667,S,15112.43333,E,8,10,1.2,36.5,M,21.5,M,,*4E
$GPGLL,3352.06667,S,15112.43333,E,000143.00,A*1B
$GPVTG,90.00000,T,90.00000,M,0.000,N,0.000,K*4E
$GPZDA,000143.00,15,01,2015,-10,00*4F
$GPGSV,3,1,10,4,12,115,50,15,8,220,50,28,64,199,50,30,62,99,50*4A
$GPGSV,3,2,10,11,25,110,50,1,19,86,50,17,49,350,50,7,33,71,50*75
$GPGSV,3,3,10,13,39,236,50,26,42,239,50*7D
$GPGSA,A,3,04,00,15,28,30,11,01,17,07,13,26,00,1.9,1.2,1.5*32
$GPGGA,000144.00,3352.06667,S,15112.43333,E,8,10,1.2,36.5,M,21.5,M,,*49
$GPGLL,3352.06667,S,15112.43333,E,000144.00,A*1C
$GPVTG,90.00000,T,90.00000,M,0.000,N,0.000,K*4E
$GPZDA,000144.00,15,01,2015,-10,00*48
$GPGSV,3,1,10,4,12,115,50,15,8,220,50,28,64,199,50,30,62,99,50*4A
$GPGSV,3,2,10,11,25,110,50,1,19,86,50,17,49,350,50,7,33,71,50*75
$GPGSV,3,3,10,13,39,236,50,26,42,239,50*7D
$GPGSA,A,3,04,00,15,28,30,11,01,17,07,13,26,00,1.9,1.2,1.5*32
$GPGGA,000145.00,3352.06667,S,15112.43333,E,8,10,1.2,36.5,M,21.5,M,,*48
$GPGLL,3352.06667,S,15112.43333,E,000145.00,A*1D
$GPVTG,90.00000,T,90.00000,M,0.000,N,0.000,K*4E
$GPZDA,000145.00,15,01,2015,-10,00*49
$GPGSV,3,1,10,4,12,115,50,15,8,220,50,28,64,199,50,30,62,99,50*4A
$GPGSV,3,2,10,11,25,110,50,1,19,86,50,17,49,350,50,7,33,71,50*75
$GPGSV,3,3,10,13,39,236,50,26,42,239,50*7D
$GPGSA,A,3,04,00,15,28,30,11,01,17,07,13,26,00,1.9,1.2,1.5*32
$GPGGA,000146.00,3352.06667,S,15112.43333,E,8,10,1.2,36.5,M,21.5,M,,*4B
$GPGLL,3352.06667,S,15112.43333,E,000146.00,A*1E
$GPVTG,90.00000,T,90.00000,M,0.000,N,0.000,K*4E
$GPZDA,000146.00,15,01,2015,-10,00*4A
$GPGSV,3,1,10,4,12,115,50,15,8,220,50,28,64,199,50,30,62,99,50*4A
$GPGSV,3,2,10,11,25,110,50,1,19,86,50,17,49,350,50,7,33,71,50*75
$GPGSV,3,3,10,13,39,236,50,26,42,239,50*7D
$GPGSA,A,3,04,00,15,28,30,11,01,17,07,13,26,00,1.9,1.2,1.5*32
$GPGGA,000147.00,3352.06667,S,15112.43333,E,8,10,1.2,36.5,M,21.5,M,,*4A
$GPGLL,3352.06667,S,15112.43333,E,000147.00,A*1F
$GPVTG,90.00000,T,90.00000,M,0.000,N,0.000,K*4E
$GPZDA,000147.00,15,01,2015,-10,00*4B
$GPGSV,3,1,10,4,12,116,50,15,8,220,50,28,64,199,50,30,62,99,50*49
$GPGSV,3,2,10,11,25,110,50,1,19,86,50,17,49,350,50,7,33,71,50*75
$GPGSV,3,3,10,13,39,236,50,26,42,239,50*7D
$GPGSA,A,3,04,00,15,28,30,11,01,17,07,13,26,00,1.9,1.2,1.5*32
$GPGGA,000148.00,3352.06667,S,15112.43333,E,8,10,1.2,36.5,M,21.5,M,,*45
$GPGLL,3352.06667,S,15112.43333,E,000148.00,A*10
$GPVTG,90.00000,T,90.00000,M,0.000,N,0.000,K*4E
$GPZDA,000148.00,15,01,2015,-10,00*44
$GPGSV,3,1,10,4,12,116,50,15,8,220,50,28,64,199,50,30,62,99,50*49
$GPGSV,3,2,10,11,25,110,50,1,19,86,50,17,49,350,50,7,33,71,50*75
$GPGSV,3,3,10,13,39,236,50,26,42,239,50*7D
$GPGSA,A,3,04,00,15,28,30,11,01,17,07,13,26,00,1.9,1.2,1.5*32
$GPGGA,000149.00,3352.06667,S,15112.43333,E,8,10,1.2,36.5,M,21.5,M,,*44
$GPGLL,3352.06667,S,15112.43333,E,000149.00,A*11
$GPVTG,90.00000,T,90.00000,M,0.000,N,0.000,K*4E
$GPZDA,000149.00,15,01,2015,-10,00*45
$GPGSV,3,1,10,4,12,116,50,15,8,220,50,28,64,199,50,30,62,99,50*49
$GPGSV,3,2,10,11,25,110,50,1,19,86,50,17,49,350,50,7,33,71,50*75
$GPGSV,3,3,10,13,40,236,50,26,42,239,50*73
$GPGSA,A,3,04,00,15,28,30,11,01,17,07,13,26,00,1.9,1.2,1.5*32
$GPGGA,000150.00,3352.06667,S,15112.43333,E,8,10,1.2,36.5,M,21.5,M,,*4C
$GPGLL,3352.06667,S,15112.43333,E,000150.00,A*19
$GPVTG,90.00000,T,90.00000,M,0.000,N,0.000,K*4E
$GPZDA,000150.00,15,01,2015,-10,00*4D
$GPGSV,3,1,10,4,12,116,50,15,8,220,50,28,64,199,50,30,62,99,50*49
$GPGSV,3,2,10,11,25,110,50,1,19,86,50,17,49,350,50,7,33,71,50*75
$GPGSV,3,3,10,13,40,236,50,26,42,239,50*73
$GPGSA,A,3,04,00,15,28,30,11,01,17,07,13,26,00,1.9,1.2,1.5*32
$GPGGA,000151.00,3352.06667,S,15112.43333,E,8,10,1.2,36.5,M,21.5,M,,*4D
$GPGLL,3352.06667,S,15112.43333,E,000151.00,A*18
$GPVTG,90.00000,T,90.00000,M,0.000,N,0.000,K*4E
$GPZDA,000151.00,15,01,2015,-10,00*4C
$GPGSV,3,1,10,4,12,116,50,15,8,220,50,28,64,199,50,30,62,99,50*49
$GPGSV,3,2,10,11,25,110,50,1,19,86,50,17,49,350,50,7,33,71,50*75
$GPGSV,3,3,10,13,40,236,50,26,42,239,50*73
$GPGSA,A,3,04,00,15,28,30,11,01,17,07,13,26,00,1.9,1.2,1.5*32
$GPGGA,000152.00,3352.06667,S,15112.43333,E,8,10,1.2,36.5,M,21.5,M,,*4E
$GPGLL,3352.06667,S,15112.43333,E,000152.00,A*1B
$GPVTG,90.00000,T,90.00000,M,0.000,N,0.000,K*4E
$GPZDA,000152.00,15,01,2015,-10,00*4F
$GPGSV,3,1,10,4,12,116,50,15,8,220,50,28,64,199,50,30,62,99,50*49
$GPGSV,3,2,10,11,25,110,50,1,19,86,50,17,49,350,50,7,33,71,50*75
$GPGSV,3,3,10,13,40,236,50,26,42,239,50*73
$GPGSA,A,3,04,00,15,28,30,11,01,17,07,13,26,00,1.9,1.2,1.5*32
$GPGGA,000153.00,3352.06667,S,15112.43333,E,8,10,1.2,36.5,M,21.5,M,,*4F
$GPGLL,3352.06667,S,15112.43333,E,000153.00,A*1A
$GPVTG,90.00000,T,90.00000,M,0.000,N,0.000,K*4E
$GPZDA,000153.00,15,01,2015,-10,00*4E
$GPGSV,3,1,10,4,12,116,50,15,8,220,50,28,64,199,50,30,62,99,50*49
$GPGSV,3,2,10,11,25,110,50,1,19,86,50,17,49,350,50,7,33,71,50*75
$GPGSV,3,3,10,13,40,236,50,26,42,239,50*73
$GPGSA,A,3,04,00,15,28,30,11,01,17,07,13,26,00,1.9,1.2,1.5*32
$GPGGA,000154.00,3352.06667,S,15112.43333,E,8,10,1.2,36.5,M,21.5,M,,*48
$GPGLL,3352.06667,S,15112.43333,E,000154.00,A*1D
$GPVTG,90.00000,T,90.00000,M,0.000,N,0.000,K*4E
$GPZDA,000154.00,15,01,2015,-10,00*49
$GPGSV,3,1,10,4,12,116,50,15,8,220,50,28,64,199,50,30,62,99,50*49
$GPGSV,3,2,10,11,25,110,50,1,19,86,50,17,49,350,50,7,33,71,50*75
$GPGSV,3,3,10,13,40,236,50,26,42,239,50*73
$GPGSA,A,3,04,00,15,28,30,11,01,17,07,13,26,00,1.9,1.2,1.5*32
$GPGGA,000155.00,3352.06667,S,15112.43333,E,8,10,1.2,36.5,M,21.5,M,,*49
$GPGLL,3352.06667,S,15112.43333,E,000155.00,A*1C
$GPVTG,90.00000,T,90.00000,M,0.000,N,0.000,K*4E
$GPZDA,000155.00,15,01,2015,-10,00*48
$GPGSV,3,1,10,4,12,116,50,15,8,220,50,28,64,199,50,30,62,99,50*49
$GPGSV,3,2,10,11,25,110,50,1,19,86,50,17,49,350,50,7,33,71,50*75
$GPGSV,3,3,10,13,40,236,50,26,42,239,50*73
$GPGSA,A,3,04,00,15,28,30,11,01,17,07,13,26,00,1.9,1.2,1.5*32
$GPGGA,000156.00,3352.06667,S,15112.43333,E,8,10,1.2,36.5,M,21.5,M,,*4A
$GPGLL,3352.06667,S,15112.43333,E,000156.00,A*1F
$GPVTG,90.00000,T,90.00000,M,0.000,N,0.000,K*4E
$GPZDA,000156.00,15,01,2015,-10,00*4B
